{
    "category1": {
        "name": "ごみ処理券販売店",
        "places": [
            {
                "name": "㈲三河屋",
                "address": "東京都八王子市暁町1-3-26",
                "tel": "042-622-3143",
                "description": "指定袋:あり<br>40Lバラ売り:あり<br粗大ゴミ処理券:なし",
                "links": [],
                "lat": 35.6676504,
                "lng": 139.3378155
            },
            {
                "name": "セブンイレブン 八王子暁町1丁目店",
                "address": "東京都八王子市暁町1-11-2",
                "tel": "042-621-2850",
                "description": "指定袋:あり<br>40Lバラ売り:あり<br粗大ゴミ処理券:あり",
                "links": [],
                "lat": 35.6689695,
                "lng": 139.3346402
            },
            {
                "name": "ファミリーマート 八王子暁町店",
                "address": "東京都八王子市暁町1-21-8",
                "tel": "042-620-5350",
                "description": "指定袋:あり<br>40Lバラ売り:なし<br粗大ゴミ処理券:あり",
                "links": [],
                "lat": 35.6696583,
                "lng": 139.3317305
            },
            {
                "name": "京晴㈱",
                "address": "東京都八王子市暁町1-30-6",
                "tel": "042-620-5520",
                "description": "指定袋:あり<br>40Lバラ売り:なし<br粗大ゴミ処理券:なし",
                "links": [],
                "lat": 35.6695852,
                "lng": 139.3339412
            },
            {
                "name": "マツモトキヨシ セレオ八王子店",
                "address": "東京都八王子市旭町1-1 セレオ八王子北館",
                "tel": "042-686-3161",
                "description": "指定袋:あり<br>40Lバラ売り:なし<br粗大ゴミ処理券:なし",
                "links": [],
                "lat": 35.656069,
                "lng": 139.3391247
            },
            {
                "name": "いなげや ブルーミングブルーミー セレオ八王子店",
                "address": "東京都八王子市旭町1-1 セレオ八王子北館",
                "tel": "042-620-0220",
                "description": "指定袋:あり<br>40Lバラ売り:なし<br粗大ゴミ処理券:なし",
                "links": [],
                "lat": 35.656069,
                "lng": 139.3391247
            },
            {
                "name": "ファミリーマート JR八王子駅前店",
                "address": "東京都八王子市旭町1-4 八王子交通ビル１階",
                "tel": "042-631-8058",
                "description": "指定袋:あり<br>40Lバラ売り:あり<br粗大ゴミ処理券:あり",
                "links": [],
                "lat": 35.6562949,
                "lng": 139.3399832
            },
            {
                "name": "ファミリーマート セレオ八王子店",
                "address": "東京都八王子市旭町1-17 セレオ八王子南館1Ｆ",
                "tel": "042-631-9290",
                "description": "指定袋:あり<br>40Lバラ売り:あり<br粗大ゴミ処理券:あり",
                "links": [],
                "lat": 35.6547176,
                "lng": 139.3390028
            },
            {
                "name": "ビックカメラ JR八王子駅店",
                "address": "東京都八王子市旭町1-17 セレオ八王子南館",
                "tel": "042-646-1111",
                "description": "指定袋:あり<br>40Lバラ売り:あり<br粗大ゴミ処理券:あり",
                "links": [],
                "lat": 35.6547176,
                "lng": 139.3390028
            },
            {
                "name": "セブンイレブン 八王子駅南店",
                "address": "東京都八王子市旭町1-18",
                "tel": "042-645-2136",
                "description": "指定袋:あり<br>40Lバラ売り:なし<br粗大ゴミ処理券:あり",
                "links": [],
                "lat": 35.654508,
                "lng": 139.339337
            },
            {
                "name": "Yショップ ippuku",
                "address": "東京都八王子市旭町6-6 ピオスビル1階",
                "tel": "042-627-5501",
                "description": "指定袋:あり<br>40Lバラ売り:あり<br粗大ゴミ処理券:あり",
                "links": [],
                "lat": 35.6568602,
                "lng": 139.337742
            },
            {
                "name": "ファミリーマート 八王子旭町店",
                "address": "東京都八王子市旭町6-13",
                "tel": "042-620-4727",
                "description": "指定袋:あり<br>40Lバラ売り:なし<br粗大ゴミ処理券:あり",
                "links": [],
                "lat": 35.6566676,
                "lng": 139.3381188
            },
            {
                "name": "セブンイレブン 八王子ユーロード店",
                "address": "東京都八王子市旭町7-9",
                "tel": "042-621-3757",
                "description": "指定袋:あり<br>40Lバラ売り:あり<br粗大ゴミ処理券:あり",
                "links": [],
                "lat": 35.6572156,
                "lng": 139.3377697
            },
            {
                "name": "薬マツモトキヨシ 八王子ユーロード店",
                "address": "東京都八王子市旭町8-3",
                "tel": "042-656-8065",
                "description": "指定袋:あり<br>40Lバラ売り:なし<br粗大ゴミ処理券:なし",
                "links": [],
                "lat": 35.6576418,
                "lng": 139.3377924
            },
            {
                "name": "ワールドドラッグ",
                "address": "東京都八王子市旭町8-5",
                "tel": "042-642-5971",
                "description": "指定袋:あり<br>40Lバラ売り:なし<br粗大ゴミ処理券:なし",
                "links": [],
                "lat": 35.6575815,
                "lng": 139.3376422
            },
            {
                "name": "セブンイレブン 八王子マルベリーブリッジ店",
                "address": "東京都八王子市旭町10-2",
                "tel": "042-642-1270",
                "description": "指定袋:あり<br>40Lバラ売り:なし<br粗大ゴミ処理券:あり",
                "links": [],
                "lat": 35.6569682,
                "lng": 139.3398301
            },
            {
                "name": "セブンイレブン 八王子旭町店",
                "address": "東京都八王子市旭町13-2",
                "tel": "042-646-1328",
                "description": "指定袋:あり<br>40Lバラ売り:なし<br粗大ゴミ処理券:あり",
                "links": [],
                "lat": 35.6569792,
                "lng": 139.3415024
            },
            {
                "name": "ファミリーマート 八王子アイロード店",
                "address": "東京都八王子市旭町13-13",
                "tel": "042-631-8301",
                "description": "指定袋:あり<br>40Lバラ売り:なし<br粗大ゴミ処理券:あり",
                "links": [],
                "lat": 35.6568821,
                "lng": 139.3407633
            },
            {
                "name": "ウェルパーク 八王子北口店",
                "address": "東京都八王子市旭町13-15",
                "tel": "042-645-8540",
                "description": "指定袋:あり<br>40Lバラ売り:あり<br粗大ゴミ処理券:なし",
                "links": [],
                "lat": 35.6569449,
                "lng": 139.3409647
            },
            {
                "name": "ウエルシア 八王子駅北口店",
                "address": "東京都八王子市東町7-6",
                "tel": "042-631-8615",
                "description": "指定袋:あり<br>40Lバラ売り:あり<br粗大ゴミ処理券:あり",
                "links": [],
                "lat": 35.6581549,
                "lng": 139.339675
            },
            {
                "name": "ローソン 八王子東町店",
                "address": "東京都八王子市東町9-10",
                "tel": "042-644-7506",
                "description": "指定袋:あり<br>40Lバラ売り:なし<br粗大ゴミ処理券:あり",
                "links": [],
                "lat": 35.6585132,
                "lng": 139.3389982
            },
            {
                "name": "ファミリーマート ＪＲ八王子駅北口店",
                "address": "東京都八王子市東町11-2",
                "tel": "042-631-6504",
                "description": "指定袋:あり<br>40Lバラ売り:なし<br粗大ゴミ処理券:あり",
                "links": [],
                "lat": 35.6578464,
                "lng": 139.3385672
            },
            {
                "name": "セブンイレブン 八王子北口店",
                "address": "東京都八王子市東町13-8",
                "tel": "042-645-6400",
                "description": "指定袋:あり<br>40Lバラ売り:あり<br粗大ゴミ処理券:あり",
                "links": [],
                "lat": 35.6587354,
                "lng": 139.3382119
            },
            {
                "name": "セブンイレブン 八王子石川中入口店",
                "address": "東京都八王子市石川町123-1",
                "tel": "042-645-0373",
                "description": "指定袋:あり<br>40Lバラ売り:あり<br粗大ゴミ処理券:あり",
                "links": [],
                "lat": 35.679965,
                "lng": 139.3580599
            },
            {
                "name": "セブンイレブン 八王子田島橋店",
                "address": "東京都八王子市石川町496-1",
                "tel": "042-645-6137",
                "description": "指定袋:あり<br>40Lバラ売り:あり<br粗大ゴミ処理券:あり",
                "links": [],
                "lat": 35.680737,
                "lng": 139.3671573
            },
            {
                "name": "セブンイレブン 八王子石川町店",
                "address": "東京都八王子市石川町913-4",
                "tel": "042-656-2160",
                "description": "指定袋:あり<br>40Lバラ売り:あり<br粗大ゴミ処理券:あり",
                "links": [],
                "lat": 35.6787234,
                "lng": 139.3757873
            },
            {
                "name": "ファミリーマート 八王子石川町店",
                "address": "東京都八王子市石川町2097-7",
                "tel": "042-660-0610",
                "description": "指定袋:あり<br>40Lバラ売り:あり<br粗大ゴミ処理券:あり",
                "links": [],
                "lat": 35.6691921,
                "lng": 139.3594814
            },
            {
                "name": "山本商店",
                "address": "東京都八王子市石川町2103-10",
                "tel": "042-642-5894",
                "description": "指定袋:あり<br>40Lバラ売り:あり<br粗大ゴミ処理券:あり",
                "links": [],
                "lat": 35.6671725,
                "lng": 139.3580769
            },
            {
                "name": "セブンイレブン 八王子石川西店",
                "address": "東京都八王子市石川町2441-5",
                "tel": "042-642-7071",
                "description": "指定袋:あり<br>40Lバラ売り:あり<br粗大ゴミ処理券:あり",
                "links": [],
                "lat": 35.6739094,
                "lng": 139.363978
            },
            {
                "name": "セブンイレブン 北八王子駅西口店",
                "address": "東京都八王子市石川町2954-5",
                "tel": "042-642-1120",
                "description": "指定袋:あり<br>40Lバラ売り:あり<br粗大ゴミ処理券:あり",
                "links": [],
                "lat": 35.6692739,
                "lng": 139.3625363
            },
            {
                "name": "ファミリーマート 北八王子駅前店",
                "address": "東京都八王子市石川町2955-10",
                "tel": "042-660-0821",
                "description": "指定袋:あり<br>40Lバラ売り:あり<br粗大ゴミ処理券:あり",
                "links": [],
                "lat": 35.669127,
                "lng": 139.3620775
            },
            {
                "name": "オレンジマートおかむら",
                "address": "東京都八王子市泉町1263",
                "tel": "042-622-0606",
                "description": "指定袋:あり<br>40Lバラ売り:あり<br粗大ゴミ処理券:なし",
                "links": [],
                "lat": 35.6751396,
                "lng": 139.3007605
            },
            {
                "name": "ファミリーマート 八王子泉町店",
                "address": "東京都八王子市泉町1352-3",
                "tel": "042-655-3470",
                "description": "指定袋:あり<br>40Lバラ売り:あり<br粗大ゴミ処理券:あり",
                "links": [],
                "lat": 35.6749707,
                "lng": 139.3012413
            },
            {
                "name": "森本米穀店",
                "address": "東京都八王子市犬目町129-4",
                "tel": "042-622-1438",
                "description": "指定袋:あり<br>40Lバラ売り:あり<br粗大ゴミ処理券:あり",
                "links": [],
                "lat": 35.6851017,
                "lng": 139.3117556
            },
            {
                "name": "セブンイレブン 八王子犬目店",
                "address": "東京都八王子市犬目町164-4",
                "tel": "042-626-0388",
                "description": "指定袋:あり<br>40Lバラ売り:あり<br粗大ゴミ処理券:あり",
                "links": [],
                "lat": 35.6834852,
                "lng": 139.3145673
            },
            {
                "name": "ＪＡ八王子 園芸センター",
                "address": "東京都八王子市犬目町478-2",
                "tel": "042-626-0431",
                "description": "指定袋:あり<br>40Lバラ売り:なし<br粗大ゴミ処理券:なし",
                "links": [],
                "lat": 35.6860855,
                "lng": 139.3108554
            },
            {
                "name": "セブンイレブン 八王子犬目西店",
                "address": "東京都八王子市犬目町891-1",
                "tel": "042-654-7105",
                "description": "指定袋:あり<br>40Lバラ売り:あり<br粗大ゴミ処理券:なし",
                "links": [],
                "lat": 35.6910188,
                "lng": 139.3055699
            },
            {
                "name": "田所酒店",
                "address": "東京都八王子市上野町6-1",
                "tel": "042-622-2067",
                "description": "指定袋:あり<br>40Lバラ売り:なし<br粗大ゴミ処理券:なし",
                "links": [],
                "lat": 35.6566705,
                "lng": 139.3306613
            },
            {
                "name": "㈲八百秀商店",
                "address": "東京都八王子市上野町18-22",
                "tel": "042-625-2123",
                "description": "指定袋:あり<br>40Lバラ売り:あり<br粗大ゴミ処理券:なし",
                "links": [],
                "lat": 35.6548633,
                "lng": 139.3301656
            },
            {
                "name": "セブンイレブン 八王子上野町店",
                "address": "東京都八王子市上野町28-11",
                "tel": "042-621-0711",
                "description": "指定袋:あり<br>40Lバラ売り:あり<br粗大ゴミ処理券:あり",
                "links": [],
                "lat": 35.6542236,
                "lng": 139.3271445
            },
            {
                "name": "読売新聞富士森公園サービスセンター",
                "address": "東京都八王子市上野町34-11",
                "tel": "042-625-4341",
                "description": "指定袋:あり<br>40Lバラ売り:なし<br粗大ゴミ処理券:なし",
                "links": [],
                "lat": 35.6565496,
                "lng": 139.3263243
            },
            {
                "name": "京王ストア 北野店",
                "address": "東京都八王子市打越町335-1",
                "tel": "042-635-8851",
                "description": "指定袋:あり<br>40Lバラ売り:あり<br粗大ゴミ処理券:あり",
                "links": [],
                "lat": 35.6444508,
                "lng": 139.3545872
            },
            {
                "name": "ＮＡＫＡＹＡＭＡ ＤＲＵＧ",
                "address": "東京都八王子市打越町335-1 京王リトナード北野",
                "tel": "042-660-0708",
                "description": "指定袋:あり<br>40Lバラ売り:あり<br粗大ゴミ処理券:あり",
                "links": [],
                "lat": 35.6444508,
                "lng": 139.3545872
            },
            {
                "name": "ファミリーマート 北野駅北口店",
                "address": "東京都八王子市打越町344-11",
                "tel": "042-631-3026",
                "description": "指定袋:あり<br>40Lバラ売り:あり<br粗大ゴミ処理券:あり",
                "links": [],
                "lat": 35.6448417,
                "lng": 139.3548638
            },
            {
                "name": "ローソン 八王子打越町店",
                "address": "東京都八王子市打越町636-5",
                "tel": "042-637-8800",
                "description": "指定袋:あり<br>40Lバラ売り:なし<br粗大ゴミ処理券:あり",
                "links": [],
                "lat": 35.6426688,
                "lng": 139.3550542
            },
            {
                "name": "ファミリーマート 北野駅南口店",
                "address": "東京都八王子市打越町2003-1",
                "tel": "042-632-8177",
                "description": "指定袋:あり<br>40Lバラ売り:なし<br粗大ゴミ処理券:あり",
                "links": [],
                "lat": 35.6450977,
                "lng": 139.3522947
            },
            {
                "name": "ファミリーマート 八王子バイパス店",
                "address": "東京都八王子市宇津木町663-2",
                "tel": "042-660-7031",
                "description": "指定袋:あり<br>40Lバラ売り:なし<br粗大ゴミ処理券:あり",
                "links": [],
                "lat": 35.6810663,
                "lng": 139.352573
            },
            {
                "name": "ファミリーマート 新滝山街道店",
                "address": "東京都八王子市梅坪町267-1",
                "tel": "042-696-5455",
                "description": "指定袋:あり<br>40Lバラ売り:なし<br粗大ゴミ処理券:あり",
                "links": [],
                "lat": 35.6879908,
                "lng": 139.3361853
            },
            {
                "name": "㈲原島商店",
                "address": "東京都八王子市追分町6-9",
                "tel": "042-622-1041",
                "description": "指定袋:あり<br>40Lバラ売り:あり<br粗大ゴミ処理券:なし",
                "links": [],
                "lat": 35.6603156,
                "lng": 139.3188293
            },
            {
                "name": "西川米店",
                "address": "東京都八王子市追分町7-1",
                "tel": "042-625-2474",
                "description": "指定袋:あり<br>40Lバラ売り:あり<br粗大ゴミ処理券:なし",
                "links": [],
                "lat": 35.6605023,
                "lng": 139.3194633
            },
            {
                "name": "㈲関山米穀店",
                "address": "東京都八王子市追分町15-12",
                "tel": "042-622-3344",
                "description": "指定袋:あり<br>40Lバラ売り:あり<br粗大ゴミ処理券:あり",
                "links": [],
                "lat": 35.6614681,
                "lng": 139.3187331
            },
            {
                "name": "松岡酒店",
                "address": "東京都八王子市追分町17-4 グリーンパーク西八王子101",
                "tel": "042-622-2916",
                "description": "指定袋:あり<br>40Lバラ売り:あり<br粗大ゴミ処理券:あり",
                "links": [],
                "lat": 35.6612181,
                "lng": 139.3196215
            },
            {
                "name": "ファミリーマート 帝京大学店",
                "address": "東京都八王子市大塚359",
                "tel": "042-679-6014",
                "description": "指定袋:あり<br>40Lバラ売り:あり<br粗大ゴミ処理券:あり",
                "links": [],
                "lat": 35.6425233,
                "lng": 139.4196464
            },
            {
                "name": "セブンイレブン 帝京大前店",
                "address": "東京都八王子市大塚484-1",
                "tel": "042-678-4385",
                "description": "指定袋:あり<br>40Lバラ売り:あり<br粗大ゴミ処理券:あり",
                "links": [],
                "lat": 35.6395646,
                "lng": 139.4227977
            },
            {
                "name": "セブンイレブン 八王子せきば店",
                "address": "東京都八王子市大塚622-1",
                "tel": "042-677-9210",
                "description": "指定袋:あり<br>40Lバラ売り:なし<br粗大ゴミ処理券:あり",
                "links": [],
                "lat": 35.6374289,
                "lng": 139.4175415
            },
            {
                "name": "オーケー 多摩大塚店",
                "address": "東京都八王子市大塚629-1",
                "tel": "042-670-2580",
                "description": "指定袋:あり<br>40Lバラ売り:あり<br粗大ゴミ処理券:なし",
                "links": [],
                "lat": 35.6379164,
                "lng": 139.4201419
            },
            {
                "name": "あいむケアサービス",
                "address": "東京都八王子市大塚796-1",
                "tel": "042-674-5777",
                "description": "指定袋:あり<br>40Lバラ売り:なし<br粗大ゴミ処理券:なし",
                "links": [],
                "lat": 35.6383436,
                "lng": 139.4254138
            },
            {
                "name": "セブンイレブン 八王子大塚店",
                "address": "東京都八王子市大塚1500",
                "tel": "042-678-0701",
                "description": "指定袋:あり<br>40Lバラ売り:なし<br粗大ゴミ処理券:あり",
                "links": [],
                "lat": 35.6352621,
                "lng": 139.4182636
            },
            {
                "name": "マツモトキヨシ 八王子大船町店",
                "address": "東京都八王子市大船町1009",
                "tel": "042-629-0310",
                "description": "指定袋:あり<br>40Lバラ売り:あり<br粗大ゴミ処理券:あり",
                "links": [],
                "lat": 35.6301722,
                "lng": 139.3150618
            },
            {
                "name": "セブンイレブン 大谷店",
                "address": "東京都八王子市大谷町47-4",
                "tel": "042-645-1779",
                "description": "指定袋:あり<br>40Lバラ売り:あり<br粗大ゴミ処理券:あり",
                "links": [],
                "lat": 35.6686225,
                "lng": 139.3537779
            },
            {
                "name": "エコス 大横店",
                "address": "東京都八王子市大横町1-8",
                "tel": "042-655-0510",
                "description": "指定袋:あり<br>40Lバラ売り:なし<br粗大ゴミ処理券:あり",
                "links": [],
                "lat": 35.6614256,
                "lng": 139.3295814
            },
            {
                "name": "山野電機",
                "address": "東京都八王子市大横町3-7",
                "tel": "042-622-6013",
                "description": "指定袋:あり<br>40Lバラ売り:なし<br粗大ゴミ処理券:あり",
                "links": [],
                "lat": 35.6631299,
                "lng": 139.3297584
            },
            {
                "name": "㈲加桝屋商店",
                "address": "東京都八王子市大横町3-10",
                "tel": "042-624-1138",
                "description": "指定袋:あり<br>40Lバラ売り:なし<br粗大ゴミ処理券:なし",
                "links": [],
                "lat": 35.6634466,
                "lng": 139.3297684
            },
            {
                "name": "ファミリーマート 八王子北大通り店",
                "address": "東京都八王子市大横町12-10",
                "tel": "042-655-3232",
                "description": "指定袋:あり<br>40Lバラ売り:なし<br粗大ゴミ処理券:なし",
                "links": [],
                "lat": 35.663495,
                "lng": 139.3288281
            },
            {
                "name": "セブンイレブン 八王子大和田町2丁目店",
                "address": "東京都八王子市大和田町2-22-22",
                "tel": "042-648-5257",
                "description": "指定袋:あり<br>40Lバラ売り:あり<br粗大ゴミ処理券:あり",
                "links": [],
                "lat": 35.6665652,
                "lng": 139.3580635
            },
            {
                "name": "新海商店",
                "address": "東京都八王子市大和田町3-12-2",
                "tel": "042-642-5874",
                "description": "指定袋:あり<br>40Lバラ売り:なし<br粗大ゴミ処理券:なし",
                "links": [],
                "lat": 35.6595787,
                "lng": 139.3534867
            },
            {
                "name": "㈲内田商店",
                "address": "東京都八王子市大和田町3-18-15",
                "tel": "042-642-0525",
                "description": "指定袋:あり<br>40Lバラ売り:なし<br粗大ゴミ処理券:あり",
                "links": [],
                "lat": 35.6616603,
                "lng": 139.3513436
            },
            {
                "name": "㈲篠商店",
                "address": "東京都八王子市大和田町3-18-18",
                "tel": "042-642-6312",
                "description": "指定袋:あり<br>40Lバラ売り:なし<br粗大ゴミ処理券:なし",
                "links": [],
                "lat": 35.6618924,
                "lng": 139.3517717
            },
            {
                "name": "グリーンズショップ大和田",
                "address": "東京都八王子市大和田町4-15-9",
                "tel": "042-645-8083",
                "description": "指定袋:あり<br>40Lバラ売り:あり<br粗大ゴミ処理券:あり",
                "links": [],
                "lat": 35.6661137,
                "lng": 139.3563897
            },
            {
                "name": "ムラウチホビー 八王子店",
                "address": "東京都八王子市大和田町5-9-7",
                "tel": "042-644-0231",
                "description": "指定袋:あり<br>40Lバラ売り:あり<br粗大ゴミ処理券:あり",
                "links": [],
                "lat": 35.66349750000001,
                "lng": 139.3517128
            },
            {
                "name": "ファミリーマート 八王子大和田五丁目店",
                "address": "東京都八王子市大和田町5-10-6",
                "tel": "042-660-8305",
                "description": "指定袋:あり<br>40Lバラ売り:なし<br粗大ゴミ処理券:あり",
                "links": [],
                "lat": 35.6639177,
                "lng": 139.352654
            },
            {
                "name": "ＪＡ八王子 経済センター",
                "address": "東京都八王子市大和田町5-15-3",
                "tel": "042-642-3885",
                "description": "指定袋:あり<br>40Lバラ売り:なし<br粗大ゴミ処理券:なし",
                "links": [],
                "lat": 35.6648758,
                "lng": 139.350364
            },
            {
                "name": "吉本商事㈱",
                "address": "東京都八王子市大和田町5-40-6",
                "tel": "042-642-4528",
                "description": "指定袋:あり<br>40Lバラ売り:なし<br粗大ゴミ処理券:なし",
                "links": [],
                "lat": 35.6686806,
                "lng": 139.3522823
            },
            {
                "name": "ドラッグセイムス 八王子大和田店",
                "address": "東京都八王子市大和田町6-13-1",
                "tel": "042-643-5351",
                "description": "指定袋:あり<br>40Lバラ売り:なし<br粗大ゴミ処理券:なし",
                "links": [],
                "lat": 35.6652236,
                "lng": 139.3479463
            },
            {
                "name": "ダイエー 八王子大和田店",
                "address": "東京都八王子市大和田町6-13-3",
                "tel": "042-644-4551",
                "description": "指定袋:あり<br>40Lバラ売り:あり<br粗大ゴミ処理券:あり",
                "links": [],
                "lat": 35.6653839,
                "lng": 139.3475532
            },
            {
                "name": "セブンイレブン 八王子大和田７丁目店",
                "address": "東京都八王子市大和田町7-8-2",
                "tel": "042-648-0750",
                "description": "指定袋:あり<br>40Lバラ売り:なし<br粗大ゴミ処理券:あり",
                "links": [],
                "lat": 35.6672043,
                "lng": 139.341856
            },
            {
                "name": "㈲あづまや商店",
                "address": "東京都八王子市鹿島4-1-110",
                "tel": "042-676-5191",
                "description": "指定袋:あり<br>40Lバラ売り:あり<br粗大ゴミ処理券:あり",
                "links": [],
                "lat": 35.6324588,
                "lng": 139.4247994
            },
            {
                "name": "ＪＡ八王子 経済センター 加住店",
                "address": "東京都八王子市加住町1-260",
                "tel": "042-691-1169",
                "description": "指定袋:あり<br>40Lバラ売り:なし<br粗大ゴミ処理券:なし",
                "links": [],
                "lat": 35.6986697,
                "lng": 139.3210189
            },
            {
                "name": "セブンイレブン 八王子京王片倉店",
                "address": "東京都八王子市片倉町339-2",
                "tel": "042-636-7110",
                "description": "指定袋:あり<br>40Lバラ売り:あり<br粗大ゴミ処理券:あり",
                "links": [],
                "lat": 35.6432061,
                "lng": 139.3383979
            },
            {
                "name": "ローソン 八王子片倉町店",
                "address": "東京都八王子市片倉町440-13",
                "tel": "042-637-8839",
                "description": "指定袋:あり<br>40Lバラ売り:なし<br粗大ゴミ処理券:なし",
                "links": [],
                "lat": 35.6425839,
                "lng": 139.3409431
            },
            {
                "name": "エコショップ元気広場",
                "address": "東京都八王子市片倉町440-15",
                "tel": "042-637-2394",
                "description": "指定袋:あり<br>40Lバラ売り:あり<br粗大ゴミ処理券:あり",
                "links": [],
                "lat": 35.6423453,
                "lng": 139.3410672
            },
            {
                "name": "㈲旭リビングシステムズ",
                "address": "東京都八王子市片倉町703-1",
                "tel": "042-632-5311",
                "description": "指定袋:あり<br>40Lバラ売り:あり<br粗大ゴミ処理券:なし",
                "links": [],
                "lat": 35.64071,
                "lng": 139.340126
            },
            {
                "name": "セブンイレブン 八王子片倉駅北口店",
                "address": "東京都八王子市片倉町712-5",
                "tel": "042-637-6300",
                "description": "指定袋:あり<br>40Lバラ売り:あり<br粗大ゴミ処理券:あり",
                "links": [],
                "lat": 35.6405597,
                "lng": 139.3417668
            },
            {
                "name": "㈱カネマン 片倉店",
                "address": "東京都八王子市片倉町721-4",
                "tel": "042-637-7878",
                "description": "指定袋:あり<br>40Lバラ売り:あり<br粗大ゴミ処理券:あり",
                "links": [],
                "lat": 35.6394222,
                "lng": 139.3413607
            },
            {
                "name": "ファミリーマート JR片倉駅前店",
                "address": "東京都八王子市片倉町721-6",
                "tel": "042-632-5502",
                "description": "指定袋:あり<br>40Lバラ売り:なし<br粗大ゴミ処理券:あり",
                "links": [],
                "lat": 35.6394449,
                "lng": 139.341661
            },
            {
                "name": "㈲福屋酒販",
                "address": "東京都八王子市片倉町1242-4",
                "tel": "042-636-3303",
                "description": "指定袋:あり<br>40Lバラ売り:なし<br粗大ゴミ処理券:あり",
                "links": [],
                "lat": 35.6313087,
                "lng": 139.34741
            },
            {
                "name": "ファミリーマート 日本文化大入口店",
                "address": "東京都八王子市片倉町2214-1",
                "tel": "042-632-6252",
                "description": "指定袋:あり<br>40Lバラ売り:なし<br粗大ゴミ処理券:あり",
                "links": [],
                "lat": 35.635775,
                "lng": 139.3393002
            },
            {
                "name": "セブンイレブン 八王子片倉南店",
                "address": "東京都八王子市片倉町2308-8",
                "tel": "042-635-3640",
                "description": "指定袋:あり<br>40Lバラ売り:あり<br粗大ゴミ処理券:あり",
                "links": [],
                "lat": 35.63692959999999,
                "lng": 139.3396635
            },
            {
                "name": "ＡＳＡ 八王子みなみ野",
                "address": "東京都八王子市片倉町2407",
                "tel": "042-637-2223",
                "description": "指定袋:あり<br>40Lバラ売り:あり<br粗大ゴミ処理券:なし",
                "links": [],
                "lat": 35.6394922,
                "lng": 139.3397673
            },
            {
                "name": "サンドラッグ 八王子片倉店",
                "address": "東京都八王子市片倉町3500-1",
                "tel": "042-632-5250",
                "description": "指定袋:あり<br>40Lバラ売り:なし<br粗大ゴミ処理券:あり",
                "links": [],
                "lat": 35.6416626,
                "lng": 139.3327646
            },
            {
                "name": "㈱三和 フードワン 片倉店",
                "address": "東京都八王子市片倉町3500-1",
                "tel": "042-636-2611",
                "description": "指定袋:あり<br>40Lバラ売り:なし<br粗大ゴミ処理券:あり",
                "links": [],
                "lat": 35.6416626,
                "lng": 139.3327646
            },
            {
                "name": "サンドラッグ 八王子四谷店",
                "address": "東京都八王子市叶谷町871-1",
                "tel": "042-655-7307",
                "description": "指定袋:あり<br>40Lバラ売り:なし<br粗大ゴミ処理券:あり",
                "links": [],
                "lat": 35.6721536,
                "lng": 139.2974207
            },
            {
                "name": "㈲山本商店",
                "address": "東京都八王子市上恩方町1108",
                "tel": "042-651-3352",
                "description": "指定袋:あり<br>40Lバラ売り:あり<br粗大ゴミ処理券:あり",
                "links": [],
                "lat": 35.6716544,
                "lng": 139.2271966
            },
            {
                "name": "㈲中村屋",
                "address": "東京都八王子市上恩方町1525",
                "tel": "042-651-3459",
                "description": "指定袋:あり<br>40Lバラ売り:なし<br粗大ゴミ処理券:あり",
                "links": [],
                "lat": 35.674153,
                "lng": 139.2203617
            },
            {
                "name": "黒沢商店",
                "address": "東京都八王子市上川町2255",
                "tel": "042-654-4018",
                "description": "指定袋:あり<br>40Lバラ売り:あり<br粗大ゴミ処理券:なし",
                "links": [],
                "lat": 35.69977069999999,
                "lng": 139.2672458
            },
            {
                "name": "㈲わかばやし",
                "address": "東京都八王子市上川町3457",
                "tel": "042-654-4527",
                "description": "指定袋:あり<br>40Lバラ売り:あり<br粗大ゴミ処理券:あり",
                "links": [],
                "lat": 35.7041703,
                "lng": 139.2540298
            },
            {
                "name": "ジェーソン 八王子上柚木店",
                "address": "東京都八王子市上柚木296-1",
                "tel": "042-677-0183",
                "description": "指定袋:あり<br>40Lバラ売り:なし<br粗大ゴミ処理券:なし",
                "links": [],
                "lat": 35.6199799,
                "lng": 139.3641848
            },
            {
                "name": "ファミリーマート 八王子上柚木店",
                "address": "東京都八王子市上柚木2-10-2",
                "tel": "042-679-7080",
                "description": "指定袋:あり<br>40Lバラ売り:あり<br粗大ゴミ処理券:あり",
                "links": [],
                "lat": 35.6219146,
                "lng": 139.3765477
            },
            {
                "name": "オーケー 南大沢店",
                "address": "東京都八王子市上柚木3-13-1",
                "tel": "042-653-3870",
                "description": "指定袋:あり<br>40Lバラ売り:なし<br粗大ゴミ処理券:なし",
                "links": [],
                "lat": 35.6135553,
                "lng": 139.3686173
            },
            {
                "name": "ファミリーマート 八王子川口町店",
                "address": "東京都八王子市川口町907",
                "tel": "042-659-8150",
                "description": "指定袋:あり<br>40Lバラ売り:なし<br粗大ゴミ処理券:あり",
                "links": [],
                "lat": 35.693971,
                "lng": 139.2788979
            },
            {
                "name": "ＪＡ八王子 経済センター 川口店",
                "address": "東京都八王子市川口町908",
                "tel": "042-654-2411",
                "description": "指定袋:あり<br>40Lバラ売り:なし<br粗大ゴミ処理券:なし",
                "links": [],
                "lat": 35.6934713,
                "lng": 139.2789783
            },
            {
                "name": "セブンイレブン 八王子榎木店",
                "address": "東京都八王子市川口町1470-1",
                "tel": "042-654-5077",
                "description": "指定袋:あり<br>40Lバラ売り:なし<br粗大ゴミ処理券:なし",
                "links": [],
                "lat": 35.6881238,
                "lng": 139.2873414
            },
            {
                "name": "エコス 川口店",
                "address": "東京都八王子市川口町1519-1",
                "tel": "042-654-8440",
                "description": "指定袋:あり<br>40Lバラ売り:なし<br粗大ゴミ処理券:あり",
                "links": [],
                "lat": 35.6859876,
                "lng": 139.2966037
            },
            {
                "name": "ローソン 八王子川口町店",
                "address": "東京都八王子市川口町1585-1",
                "tel": "042-659-8830",
                "description": "指定袋:あり<br>40Lバラ売り:なし<br粗大ゴミ処理券:あり",
                "links": [],
                "lat": 35.6877877,
                "lng": 139.2914348
            },
            {
                "name": "ウエルシア 八王子川口店",
                "address": "東京都八王子市川口町1745-3",
                "tel": "042-659-7561",
                "description": "指定袋:あり<br>40Lバラ売り:あり<br粗大ゴミ処理券:あり",
                "links": [],
                "lat": 35.68690369999999,
                "lng": 139.2955811
            },
            {
                "name": "㈲馬場商店",
                "address": "東京都八王子市川口町3310",
                "tel": "042-654-3339",
                "description": "指定袋:あり<br>40Lバラ売り:なし<br粗大ゴミ処理券:あり",
                "links": [],
                "lat": 35.6968211,
                "lng": 139.2750298
            },
            {
                "name": "セブンイレブン 八王子川口町東店",
                "address": "東京都八王子市川口町3754-1",
                "tel": "042-654-6866",
                "description": "指定袋:あり<br>40Lバラ売り:なし<br粗大ゴミ処理券:なし",
                "links": [],
                "lat": 35.6839752,
                "lng": 139.2990989
            },
            {
                "name": "クリエイトＳ・Ｄ 八王子北野町店",
                "address": "東京都八王子市北野町173-1",
                "tel": "042-631-5290",
                "description": "指定袋:あり<br>40Lバラ売り:あり<br粗大ゴミ処理券:あり",
                "links": [],
                "lat": 35.6486993,
                "lng": 139.3480126
            },
            {
                "name": "吉音精穀(有)",
                "address": "東京都八王子市北野町189",
                "tel": "042-643-0370",
                "description": "指定袋:あり<br>40Lバラ売り:あり<br粗大ゴミ処理券:なし",
                "links": [],
                "lat": 35.6494299,
                "lng": 139.3470532
            },
            {
                "name": "ファミリーマート 八王子北野町店",
                "address": "東京都八王子市北野町523-1",
                "tel": "042-631-5156",
                "description": "指定袋:あり<br>40Lバラ売り:あり<br粗大ゴミ処理券:あり",
                "links": [],
                "lat": 35.6504319,
                "lng": 139.351382
            },
            {
                "name": "スーパーアルプス 北野店",
                "address": "東京都八王子市北野町545-3",
                "tel": "042-643-6266",
                "description": "指定袋:あり<br>40Lバラ売り:あり<br粗大ゴミ処理券:あり",
                "links": [],
                "lat": 35.6455386,
                "lng": 139.3548392
            },
            {
                "name": "クリエイトＳ・Ｄ 八王子コピオ北野店",
                "address": "東京都八王子市北野町545-3",
                "tel": "042-631-1850",
                "description": "指定袋:あり<br>40Lバラ売り:あり<br粗大ゴミ処理券:あり",
                "links": [],
                "lat": 35.6455386,
                "lng": 139.3548392
            },
            {
                "name": "ところタバコ店",
                "address": "東京都八王子市北野町546-15",
                "tel": "042-642-0904",
                "description": "指定袋:あり<br>40Lバラ売り:あり<br粗大ゴミ処理券:あり",
                "links": [],
                "lat": 35.6453908,
                "lng": 139.3539102
            },
            {
                "name": "ファミリーマート 北野駅前通り店",
                "address": "東京都八王子市北野町554-11",
                "tel": "042-631-3606",
                "description": "指定袋:あり<br>40Lバラ売り:あり<br粗大ゴミ処理券:あり",
                "links": [],
                "lat": 35.6465215,
                "lng": 139.3549834
            },
            {
                "name": "㈱横溝商店 北野営業所",
                "address": "東京都八王子市北野町576-4",
                "tel": "042-642-6222",
                "description": "指定袋:あり<br>40Lバラ売り:なし<br粗大ゴミ処理券:なし",
                "links": [],
                "lat": 35.6505355,
                "lng": 139.3529096
            },
            {
                "name": "㈲大和田商会",
                "address": "東京都八王子市北野町584-21",
                "tel": "042-645-6345",
                "description": "指定袋:あり<br>40Lバラ売り:なし<br粗大ゴミ処理券:なし",
                "links": [],
                "lat": 35.6490006,
                "lng": 139.3606349
            },
            {
                "name": "㈱ロータリーバッグミヤモト八王子店",
                "address": "東京都八王子市北野町584-30",
                "tel": "042-645-6459",
                "description": "指定袋:あり<br>40Lバラ売り:なし<br粗大ゴミ処理券:なし",
                "links": [],
                "lat": 35.64872210000001,
                "lng": 139.3600565
            },
            {
                "name": "ローソン 八王子卸売市場前店",
                "address": "東京都八王子市北野町589-2",
                "tel": "042-646-1362",
                "description": "指定袋:あり<br>40Lバラ売り:なし<br粗大ゴミ処理券:あり",
                "links": [],
                "lat": 35.652043,
                "lng": 139.3562924
            },
            {
                "name": "㈱北野商店",
                "address": "東京都八王子市北野台1-7-5",
                "tel": "042-635-1638",
                "description": "指定袋:あり<br>40Lバラ売り:なし<br粗大ゴミ処理券:なし",
                "links": [],
                "lat": 35.6335961,
                "lng": 139.3575217
            },
            {
                "name": "いせやストアー",
                "address": "東京都八王子市北野台4-31-4",
                "tel": "042-635-7013",
                "description": "指定袋:あり<br>40Lバラ売り:あり<br粗大ゴミ処理券:なし",
                "links": [],
                "lat": 35.6294461,
                "lng": 139.3517903
            },
            {
                "name": "生活協同組合 コープみらい コープ北野台店",
                "address": "東京都八王子市北野台5-49-6",
                "tel": "042-636-6686",
                "description": "指定袋:あり<br>40Lバラ売り:あり<br粗大ゴミ処理券:あり",
                "links": [],
                "lat": 35.633085,
                "lng": 139.3500604
            },
            {
                "name": "ミニストップ 八王子北野台店",
                "address": "東京都八王子市北野台5-50-7",
                "tel": "042-637-4107",
                "description": "指定袋:あり<br>40Lバラ売り:なし<br粗大ゴミ処理券:あり",
                "links": [],
                "lat": 35.6333821,
                "lng": 139.3514545
            },
            {
                "name": "マツモトキヨシ 八王子北野台店",
                "address": "東京都八王子市北野台5-50-10",
                "tel": "042-636-2651",
                "description": "指定袋:あり<br>40Lバラ売り:なし<br粗大ゴミ処理券:なし",
                "links": [],
                "lat": 35.6333252,
                "lng": 139.3510179
            },
            {
                "name": "セブンイレブン 八王子絹ヶ丘１丁目店",
                "address": "東京都八王子市絹ヶ丘1-3-7",
                "tel": "042-637-7107",
                "description": "指定袋:あり<br>40Lバラ売り:あり<br粗大ゴミ処理券:あり",
                "links": [],
                "lat": 35.6391546,
                "lng": 139.3598401
            },
            {
                "name": "ＡＳＡ北野台",
                "address": "東京都八王子市絹ヶ丘1-51-6",
                "tel": "042-635-8684",
                "description": "指定袋:あり<br>40Lバラ売り:なし<br粗大ゴミ処理券:あり",
                "links": [],
                "lat": 35.6371859,
                "lng": 139.3617249
            },
            {
                "name": "㈱タイヨー薬局",
                "address": "東京都八王子市絹ヶ丘2-7-7",
                "tel": "042-635-0367",
                "description": "指定袋:あり<br>40Lバラ売り:あり<br粗大ゴミ処理券:あり",
                "links": [],
                "lat": 35.6385841,
                "lng": 139.3590133
            },
            {
                "name": "坂本屋",
                "address": "東京都八王子市絹ヶ丘2-36-5",
                "tel": "042-636-1187",
                "description": "指定袋:あり<br>40Lバラ売り:なし<br粗大ゴミ処理券:なし",
                "links": [],
                "lat": 35.6365463,
                "lng": 139.360734
            },
            {
                "name": "Ｙｏｕ ＆ Ｉ",
                "address": "東京都八王子市清川町22-3",
                "tel": "042-697-4166",
                "description": "指定袋:あり<br>40Lバラ売り:あり<br粗大ゴミ処理券:なし",
                "links": [],
                "lat": 35.6721441,
                "lng": 139.3105747
            },
            {
                "name": "ウエルシア 八王子椚田店",
                "address": "東京都八王子市椚田町72-1",
                "tel": "042-668-8708",
                "description": "指定袋:あり<br>40Lバラ売り:あり<br粗大ゴミ処理券:あり",
                "links": [],
                "lat": 35.6327208,
                "lng": 139.3126728
            },
            {
                "name": "マツモトキヨシ めじろ台店",
                "address": "東京都八王子市椚田町530－5",
                "tel": "042-661-2781",
                "description": "指定袋:あり<br>40Lバラ売り:なし<br粗大ゴミ処理券:あり",
                "links": [],
                "lat": 35.6373304,
                "lng": 139.3102199
            },
            {
                "name": "ローソン めじろ台グリーンヒル通店",
                "address": "東京都八王子市椚田町542-2",
                "tel": "042-667-2033",
                "description": "指定袋:あり<br>40Lバラ売り:なし<br粗大ゴミ処理券:あり",
                "links": [],
                "lat": 35.6364954,
                "lng": 139.3101166
            },
            {
                "name": "ファミリーマート 秀栄高専通り店",
                "address": "東京都八王子市椚田町553-15",
                "tel": "042-669-1221",
                "description": "指定袋:あり<br>40Lバラ売り:なし<br粗大ゴミ処理券:あり",
                "links": [],
                "lat": 35.6377686,
                "lng": 139.305799
            },
            {
                "name": "㈱ジャスト",
                "address": "東京都八王子市椚田町567-24",
                "tel": "042-629-2601",
                "description": "指定袋:あり<br>40Lバラ売り:なし<br粗大ゴミ処理券:なし",
                "links": [],
                "lat": 35.6379038,
                "lng": 139.3026622
            },
            {
                "name": "ドン・キホーテ めじろ台店",
                "address": "東京都八王子市椚田町586-22",
                "tel": "042-669-0711",
                "description": "指定袋:あり<br>40Lバラ売り:なし<br粗大ゴミ処理券:なし",
                "links": [],
                "lat": 35.6382013,
                "lng": 139.3063209
            },
            {
                "name": "スーパーアルプス はざま店",
                "address": "東京都八王子市椚田町1208",
                "tel": "042-665-6621",
                "description": "指定袋:あり<br>40Lバラ売り:あり<br粗大ゴミ処理券:あり",
                "links": [],
                "lat": 35.6380101,
                "lng": 139.2999186
            },
            {
                "name": "セブンイレブン 八王子久保山１丁目店",
                "address": "東京都八王子市久保山町1-9-154",
                "tel": "042-691-8896",
                "description": "指定袋:あり<br>40Lバラ売り:あり<br粗大ゴミ処理券:あり",
                "links": [],
                "lat": 35.6883339,
                "lng": 139.3613633
            },
            {
                "name": "スーパーアルプス 宇津木台店",
                "address": "東京都八王子市久保山町1-10",
                "tel": "042-691-6211",
                "description": "指定袋:あり<br>40Lバラ売り:あり<br粗大ゴミ処理券:あり",
                "links": [],
                "lat": 35.6876166,
                "lng": 139.3599861
            },
            {
                "name": "クリエイトＳ・Ｄ 八王子宇津木台店",
                "address": "東京都八王子市久保山町1-11",
                "tel": "042-696-5655",
                "description": "指定袋:あり<br>40Lバラ売り:あり<br粗大ゴミ処理券:あり",
                "links": [],
                "lat": 35.6872901,
                "lng": 139.359684
            },
            {
                "name": "㈱奈加志磨 宇津木台店",
                "address": "東京都八王子市久保山町2-31-7",
                "tel": "042-692-0233",
                "description": "指定袋:あり<br>40Lバラ売り:なし<br粗大ゴミ処理券:なし",
                "links": [],
                "lat": 35.6892288,
                "lng": 139.3574821
            },
            {
                "name": "ジェーソン 八王子宇津木台店",
                "address": "東京都八王子市久保山町2-45-2",
                "tel": "042-692-2667",
                "description": "指定袋:あり<br>40Lバラ売り:なし<br粗大ゴミ処理券:なし",
                "links": [],
                "lat": 35.68840429999999,
                "lng": 139.3587155
            },
            {
                "name": "セブンイレブン 八王子由木中央店",
                "address": "東京都八王子市越野3-13",
                "tel": "042-675-2012",
                "description": "指定袋:あり<br>40Lバラ売り:あり<br粗大ゴミ処理券:あり",
                "links": [],
                "lat": 35.6288091,
                "lng": 139.3863071
            },
            {
                "name": "クリエイトＳ・Ｄ 八王子越野店",
                "address": "東京都八王子市越野9-2",
                "tel": "042-679-7066",
                "description": "指定袋:あり<br>40Lバラ売り:あり<br粗大ゴミ処理券:あり",
                "links": [],
                "lat": 35.6295141,
                "lng": 139.3874559
            },
            {
                "name": "くすりのスズトモ",
                "address": "東京都八王子市越野11-11",
                "tel": "042-677-9383",
                "description": "指定袋:あり<br>40Lバラ売り:あり<br粗大ゴミ処理券:なし",
                "links": [],
                "lat": 35.6293444,
                "lng": 139.3891211
            },
            {
                "name": "セブンイレブン 八王子越野店",
                "address": "東京都八王子市越野23-13",
                "tel": "042-677-7501",
                "description": "指定袋:あり<br>40Lバラ売り:あり<br粗大ゴミ処理券:あり",
                "links": [],
                "lat": 35.6279083,
                "lng": 139.3908771
            },
            {
                "name": "ローソンストア１００ 八王子山田店",
                "address": "東京都八王子市小比企町485",
                "tel": "042-632-0299",
                "description": "指定袋:あり<br>40Lバラ売り:あり<br粗大ゴミ処理券:あり",
                "links": [],
                "lat": 35.6434225,
                "lng": 139.3203577
            },
            {
                "name": "セブンイレブン 京王山田駅前店",
                "address": "東京都八王子市小比企町599",
                "tel": "042-636-1161",
                "description": "指定袋:あり<br>40Lバラ売り:あり<br粗大ゴミ処理券:あり",
                "links": [],
                "lat": 35.6438726,
                "lng": 139.3216151
            },
            {
                "name": "セブンイレブン 八王子小比企東店",
                "address": "東京都八王子市小比企町1132-2",
                "tel": "042-636-7887",
                "description": "指定袋:あり<br>40Lバラ売り:あり<br粗大ゴミ処理券:あり",
                "links": [],
                "lat": 35.6440524,
                "lng": 139.3297485
            },
            {
                "name": "松井商店",
                "address": "東京都八王子市小比企町1210",
                "tel": "042-635-8805",
                "description": "指定袋:あり<br>40Lバラ売り:あり<br粗大ゴミ処理券:あり",
                "links": [],
                "lat": 35.6430151,
                "lng": 139.327836
            },
            {
                "name": "㈲山田商店",
                "address": "東京都八王子市小比企町1930-1",
                "tel": "042-637-2181",
                "description": "指定袋:あり<br>40Lバラ売り:なし<br粗大ゴミ処理券:なし",
                "links": [],
                "lat": 35.6365154,
                "lng": 139.3165248
            },
            {
                "name": "アヤック 小比企町店",
                "address": "東京都八王子市小比企町2808",
                "tel": "042-636-0008",
                "description": "指定袋:あり<br>40Lバラ売り:あり<br粗大ゴミ処理券:あり",
                "links": [],
                "lat": 35.6362544,
                "lng": 139.3187104
            },
            {
                "name": "ミニストップ 八王子小比企町店",
                "address": "東京都八王子市小比企町3500-4",
                "tel": "042-636-5544",
                "description": "指定袋:あり<br>40Lバラ売り:あり<br粗大ゴミ処理券:あり",
                "links": [],
                "lat": 35.6332826,
                "lng": 139.3203596
            },
            {
                "name": "農産物直売所 マルシェ ８０２",
                "address": "東京都八王子市小比企町3504",
                "tel": "042-632-2800",
                "description": "指定袋:あり<br>40Lバラ売り:なし<br粗大ゴミ処理券:なし",
                "links": [],
                "lat": 35.6331426,
                "lng": 139.3199429
            },
            {
                "name": "セブンイレブン 八王子小宮店",
                "address": "東京都八王子市小宮町851-4",
                "tel": "042-642-5366",
                "description": "指定袋:あり<br>40Lバラ売り:あり<br粗大ゴミ処理券:あり",
                "links": [],
                "lat": 35.6870757,
                "lng": 139.3702422
            },
            {
                "name": "㈲八南ドラッグ",
                "address": "東京都八王子市子安町1-8-16",
                "tel": "042-642-3773",
                "description": "指定袋:あり<br>40Lバラ売り:なし<br粗大ゴミ処理券:あり",
                "links": [],
                "lat": 35.6532935,
                "lng": 139.3408221
            },
            {
                "name": "㈲渡邉清商店 和田屋酒店",
                "address": "東京都八王子市子安町1-25-4",
                "tel": "042-642-2298",
                "description": "指定袋:あり<br>40Lバラ売り:なし<br粗大ゴミ処理券:なし",
                "links": [],
                "lat": 35.6527884,
                "lng": 139.3420735
            },
            {
                "name": "ファミリーマート 八王子子安町店",
                "address": "東京都八王子市子安町1-31",
                "tel": "042-631-1471",
                "description": "指定袋:あり<br>40Lバラ売り:あり<br粗大ゴミ処理券:あり",
                "links": [],
                "lat": 35.6517879,
                "lng": 139.341998
            },
            {
                "name": "㈱マルカネ",
                "address": "東京都八王子市子安町1-33-5",
                "tel": "042-644-0412",
                "description": "指定袋:あり<br>40Lバラ売り:なし<br粗大ゴミ処理券:なし",
                "links": [],
                "lat": 35.6512739,
                "lng": 139.3445362
            },
            {
                "name": "ドラッグセイムス 子安町店",
                "address": "東京都八王子市子安町2-2-17",
                "tel": "042-631-9551",
                "description": "指定袋:あり<br>40Lバラ売り:あり<br粗大ゴミ処理券:あり",
                "links": [],
                "lat": 35.6515665,
                "lng": 139.3405551
            },
            {
                "name": "ミニストップ 八王子子安町店",
                "address": "東京都八王子市子安町2-5-16",
                "tel": "042-642-8521",
                "description": "指定袋:あり<br>40Lバラ売り:あり<br粗大ゴミ処理券:あり",
                "links": [],
                "lat": 35.6510897,
                "lng": 139.3441078
            },
            {
                "name": "セブンイレブン 八王子子安３丁目店",
                "address": "東京都八王子市子安町3-6-12",
                "tel": "042-643-0168",
                "description": "指定袋:あり<br>40Lバラ売り:あり<br粗大ゴミ処理券:あり",
                "links": [],
                "lat": 35.6518026,
                "lng": 139.3384443
            },
            {
                "name": "ポプラ 八王子店",
                "address": "東京都八王子市子安町3-26-2",
                "tel": "042-623-0369",
                "description": "指定袋:あり<br>40Lバラ売り:あり<br粗大ゴミ処理券:あり",
                "links": [],
                "lat": 35.6472889,
                "lng": 139.336695
            },
            {
                "name": "セブンイレブン 八王子サザンスカイタワー店",
                "address": "東京都八王子市子安町4-7-1",
                "tel": "042-622-0078",
                "description": "指定袋:あり<br>40Lバラ売り:なし<br粗大ゴミ処理券:あり",
                "links": [],
                "lat": 35.6547078,
                "lng": 139.3376418
            },
            {
                "name": "トモズエクスプレス 八王子店",
                "address": "東京都八王子市子安町4-7-1 サザンスカイタワー八王子2階",
                "tel": "042-634-9611",
                "description": "指定袋:あり<br>40Lバラ売り:あり<br粗大ゴミ処理券:なし",
                "links": [],
                "lat": 35.6547078,
                "lng": 139.3376418
            },
            {
                "name": "スーパーアルプス 八王子駅南口店",
                "address": "東京都八王子市子安町4-7-1",
                "tel": "042-628-1313",
                "description": "指定袋:あり<br>40Lバラ売り:あり<br粗大ゴミ処理券:あり",
                "links": [],
                "lat": 35.6547078,
                "lng": 139.3376418
            },
            {
                "name": "ファミリーマート ＪＲ八王子南口店",
                "address": "東京都八王子市子安町4-9-7 森永産業ビル",
                "tel": "042-660-0532",
                "description": "指定袋:あり<br>40Lバラ売り:なし<br粗大ゴミ処理券:あり",
                "links": [],
                "lat": 35.6537159,
                "lng": 139.3383244
            },
            {
                "name": "ローソン 八王子インター店",
                "address": "東京都八王子市左入町170-1",
                "tel": "042-692-0850",
                "description": "指定袋:あり<br>40Lバラ売り:なし<br粗大ゴミ処理券:あり",
                "links": [],
                "lat": 35.6820856,
                "lng": 139.344587
            },
            {
                "name": "セブンイレブン 八王子インター北店",
                "address": "東京都八王子市左入町261-1",
                "tel": "042-692-5877",
                "description": "指定袋:あり<br>40Lバラ売り:あり<br粗大ゴミ処理券:あり",
                "links": [],
                "lat": 35.6836971,
                "lng": 139.3458366
            },
            {
                "name": "㈱内山石油店",
                "address": "東京都八王子市左入町425",
                "tel": "042-691-1626",
                "description": "指定袋:あり<br>40Lバラ売り:なし<br粗大ゴミ処理券:あり",
                "links": [],
                "lat": 35.6871878,
                "lng": 139.3448595
            },
            {
                "name": "山﨑商店",
                "address": "東京都八王子市散田町1-3-13",
                "tel": "042-661-1041",
                "description": "指定袋:あり<br>40Lバラ売り:あり<br粗大ゴミ処理券:あり",
                "links": [],
                "lat": 35.6545768,
                "lng": 139.3147428
            },
            {
                "name": "セブンイレブン 八王子散田１丁目店",
                "address": "東京都八王子市散田町1-16-10",
                "tel": "042-666-1727",
                "description": "指定袋:あり<br>40Lバラ売り:あり<br粗大ゴミ処理券:あり",
                "links": [],
                "lat": 35.6530712,
                "lng": 139.3172746
            },
            {
                "name": "㈲亀山商店",
                "address": "東京都八王子市散田町2-43-11",
                "tel": "042-664-0213",
                "description": "指定袋:あり<br>40Lバラ売り:なし<br粗大ゴミ処理券:あり",
                "links": [],
                "lat": 35.6487761,
                "lng": 139.3147078
            },
            {
                "name": "ミニストップ  西八王子南口店",
                "address": "東京都八王子市散田町3-1-4",
                "tel": "042-667-3571",
                "description": "指定袋:あり<br>40Lバラ売り:なし<br粗大ゴミ処理券:あり",
                "links": [],
                "lat": 35.6561372,
                "lng": 139.3123593
            },
            {
                "name": "セブンイレブン 八王子散田三丁目店",
                "address": "東京都八王子市散田町3-14-18",
                "tel": "042-668-0778",
                "description": "指定袋:あり<br>40Lバラ売り:あり<br粗大ゴミ処理券:あり",
                "links": [],
                "lat": 35.6526506,
                "lng": 139.3088041
            },
            {
                "name": "クリエイトＳ・Ｄ 八王子散田町店",
                "address": "東京都八王子市散田町3-14-20",
                "tel": "042-669-8020",
                "description": "指定袋:あり<br>40Lバラ売り:あり<br粗大ゴミ処理券:あり",
                "links": [],
                "lat": 35.6527096,
                "lng": 139.3090993
            },
            {
                "name": "昭和薬局",
                "address": "東京都八王子市散田町3-18-11",
                "tel": "042-665-3488",
                "description": "指定袋:あり<br>40Lバラ売り:なし<br粗大ゴミ処理券:なし",
                "links": [],
                "lat": 35.655294,
                "lng": 139.3139549
            },
            {
                "name": "リカーズひろせ",
                "address": "東京都八王子市散田町3-18-11",
                "tel": "042-664-0296",
                "description": "指定袋:あり<br>40Lバラ売り:あり<br粗大ゴミ処理券:なし",
                "links": [],
                "lat": 35.655294,
                "lng": 139.3139549
            },
            {
                "name": "ローソン 八王子散田町4丁目店",
                "address": "東京都八王子市散田町4-14-6",
                "tel": "042-664-5582",
                "description": "指定袋:あり<br>40Lバラ売り:なし<br粗大ゴミ処理券:あり",
                "links": [],
                "lat": 35.6521884,
                "lng": 139.3070053
            },
            {
                "name": "スーパーアルプス 散田店",
                "address": "東京都八王子市散田町5-16",
                "tel": "042-668-3300",
                "description": "指定袋:あり<br>40Lバラ売り:あり<br粗大ゴミ処理券:あり",
                "links": [],
                "lat": 35.6499949,
                "lng": 139.3045838
            },
            {
                "name": "セブンイレブン 八王子散田５丁目店",
                "address": "東京都八王子市散田町5-24-16",
                "tel": "042-661-1678",
                "description": "指定袋:あり<br>40Lバラ売り:あり<br粗大ゴミ処理券:あり",
                "links": [],
                "lat": 35.6484974,
                "lng": 139.301809
            },
            {
                "name": "セブンイレブン 八王子繊維工業団地店",
                "address": "東京都八王子市下恩方町1185-1",
                "tel": "042-652-0507",
                "description": "指定袋:あり<br>40Lバラ売り:あり<br粗大ゴミ処理券:あり",
                "links": [],
                "lat": 35.6772812,
                "lng": 139.2568928
            },
            {
                "name": "ファミリーマート 八王子西インター店",
                "address": "東京都八王子市下恩方町1758",
                "tel": "042-650-1963",
                "description": "指定袋:あり<br>40Lバラ売り:あり<br粗大ゴミ処理券:あり",
                "links": [],
                "lat": 35.6725366,
                "lng": 139.2600472
            },
            {
                "name": "ウェルパーク 八王子下恩方店",
                "address": "東京都八王子市下恩方町1878",
                "tel": "042-651-0727",
                "description": "指定袋:あり<br>40Lバラ売り:なし<br粗大ゴミ処理券:あり",
                "links": [],
                "lat": 35.6707544,
                "lng": 139.26084
            },
            {
                "name": "ＪＡ八王子 経済センター 由木店",
                "address": "東京都八王子市下柚木435",
                "tel": "042-676-5772",
                "description": "指定袋:あり<br>40Lバラ売り:なし<br粗大ゴミ処理券:なし",
                "links": [],
                "lat": 35.62907500000001,
                "lng": 139.3829011
            },
            {
                "name": "セブンイレブン 八王子下柚木西店",
                "address": "東京都八王子市下柚木2162",
                "tel": "042-677-7169",
                "description": "指定袋:あり<br>40Lバラ売り:あり<br粗大ゴミ処理券:あり",
                "links": [],
                "lat": 35.6235739,
                "lng": 139.3741928
            },
            {
                "name": "ファミリーマート 八王子下柚木二丁目店",
                "address": "東京都八王子市下柚木2-3-8",
                "tel": "042-679-7056",
                "description": "指定袋:あり<br>40Lバラ売り:あり<br粗大ゴミ処理券:あり",
                "links": [],
                "lat": 35.6267793,
                "lng": 139.3805419
            },
            {
                "name": "セブンイレブン 八王子下柚木2丁目店",
                "address": "東京都八王子市下柚木2-12-5",
                "tel": "042-675-6778",
                "description": "指定袋:あり<br>40Lバラ売り:あり(不燃のみ)<br粗大ゴミ処理券:あり",
                "links": [],
                "lat": 35.6249089,
                "lng": 139.3785661
            },
            {
                "name": "生活協同組合コープみらい  コープ城山手店",
                "address": "東京都八王子市城山手1-27-5",
                "tel": "042-665-0005",
                "description": "指定袋:あり<br>40Lバラ売り:あり<br粗大ゴミ処理券:なし",
                "links": [],
                "lat": 35.6546554,
                "lng": 139.2880889
            },
            {
                "name": "マツモトキヨシ 城山手店",
                "address": "東京都八王子市城山手1-32-7",
                "tel": "042-662-2065",
                "description": "指定袋:あり<br>40Lバラ売り:あり<br粗大ゴミ処理券:なし",
                "links": [],
                "lat": 35.6555854,
                "lng": 139.2883603
            },
            {
                "name": "㈲小川屋",
                "address": "東京都八王子市諏訪町73",
                "tel": "042-651-4340",
                "description": "指定袋:あり<br>40Lバラ売り:あり<br粗大ゴミ処理券:あり",
                "links": [],
                "lat": 35.6746642,
                "lng": 139.2927582
            },
            {
                "name": "峰岸商店",
                "address": "東京都八王子市諏訪町155",
                "tel": "042-651-1177",
                "description": "指定袋:あり<br>40Lバラ売り:あり<br粗大ゴミ処理券:あり",
                "links": [],
                "lat": 35.676464,
                "lng": 139.2942624
            },
            {
                "name": "オレンジマートおざわ",
                "address": "東京都八王子市諏訪町231-2",
                "tel": "042-651-5514",
                "description": "指定袋:あり<br>40Lバラ売り:なし<br粗大ゴミ処理券:なし",
                "links": [],
                "lat": 35.6775133,
                "lng": 139.2904607
            },
            {
                "name": "ダイシンショップ",
                "address": "東京都八王子市諏訪町284-1",
                "tel": "042-651-5726",
                "description": "指定袋:あり<br>40Lバラ売り:なし<br粗大ゴミ処理券:なし",
                "links": [],
                "lat": 35.6813355,
                "lng": 139.289916
            },
            {
                "name": "ウエルシア 八王子諏訪店",
                "address": "東京都八王子市諏訪町499",
                "tel": "042-650-1351",
                "description": "指定袋:あり<br>40Lバラ売り:あり<br粗大ゴミ処理券:あり",
                "links": [],
                "lat": 35.6808146,
                "lng": 139.2952896
            },
            {
                "name": "スーパーオザム 八王子諏訪店",
                "address": "東京都八王子市諏訪町499",
                "tel": "042-650-5081",
                "description": "指定袋:あり<br>40Lバラ売り:なし<br粗大ゴミ処理券:あり",
                "links": [],
                "lat": 35.6808146,
                "lng": 139.2952896
            },
            {
                "name": "立川商店",
                "address": "東京都八王子市千人町1-8-22",
                "tel": "042-661-6556",
                "description": "指定袋:あり<br>40Lバラ売り:あり<br粗大ゴミ処理券:なし",
                "links": [],
                "lat": 35.6598556,
                "lng": 139.3134001
            },
            {
                "name": "セブンイレブン 八王子千人町１丁目店",
                "address": "東京都八王子市千人町1-11-10",
                "tel": "042-667-0840",
                "description": "指定袋:あり<br>40Lバラ売り:あり<br粗大ゴミ処理券:あり",
                "links": [],
                "lat": 35.6586124,
                "lng": 139.3142478
            },
            {
                "name": "ダイエー 西八王子店",
                "address": "東京都八王子市千人町2-1-9",
                "tel": "042-661-3411",
                "description": "指定袋:あり<br>40Lバラ売り:あり<br粗大ゴミ処理券:あり",
                "links": [],
                "lat": 35.657485,
                "lng": 139.3137193
            },
            {
                "name": "㈲磯間書店",
                "address": "東京都八王子市千人町2-3-8",
                "tel": "042-661-1656",
                "description": "指定袋:あり<br>40Lバラ売り:なし<br粗大ゴミ処理券:なし",
                "links": [],
                "lat": 35.657787,
                "lng": 139.3130933
            },
            {
                "name": "㈲田邊商店",
                "address": "東京都八王子市千人町2-4-3",
                "tel": "042-661-2336",
                "description": "指定袋:あり<br>40Lバラ売り:なし<br粗大ゴミ処理券:なし",
                "links": [],
                "lat": 35.6586835,
                "lng": 139.3132416
            },
            {
                "name": "ローソン 八王子千人町二丁目店",
                "address": "東京都八王子市千人町2-17-18",
                "tel": "042-662-7778",
                "description": "指定袋:あり<br>40Lバラ売り:なし<br粗大ゴミ処理券:あり",
                "links": [],
                "lat": 35.658755,
                "lng": 139.311735
            },
            {
                "name": "ヘルスケアセイジョー 西八王子店",
                "address": "東京都八王子市千人町2-19-19",
                "tel": "042-669-0075",
                "description": "指定袋:あり<br>40Lバラ売り:なし<br粗大ゴミ処理券:なし",
                "links": [],
                "lat": 35.6579012,
                "lng": 139.3127286
            },
            {
                "name": "ファミリーマート 西八王子駅北口店",
                "address": "東京都八王子市千人町2-20-6",
                "tel": "042-668-8630",
                "description": "指定袋:あり<br>40Lバラ売り:なし<br粗大ゴミ処理券:あり",
                "links": [],
                "lat": 35.65712690000001,
                "lng": 139.3123696
            },
            {
                "name": "マツモトキヨシ セレオ西八王子店",
                "address": "東京都八王子市千人町2-21-1",
                "tel": "042-667-2241",
                "description": "指定袋:あり(可燃のみ)<br>40Lバラ売り:なし<br粗大ゴミ処理券:なし",
                "links": [],
                "lat": 35.6564966,
                "lng": 139.3123896
            },
            {
                "name": "ローソン 西八王子駅北口店",
                "address": "東京都八王子市千人町3-1-19",
                "tel": "042-669-3721",
                "description": "指定袋:あり<br>40Lバラ売り:なし<br粗大ゴミ処理券:あり",
                "links": [],
                "lat": 35.6566703,
                "lng": 139.3117853
            },
            {
                "name": "セブンイレブン 八王子中央図書館前店",
                "address": "東京都八王子市千人町3-2-7",
                "tel": "042-664-2620",
                "description": "指定袋:あり<br>40Lバラ売り:あり<br粗大ゴミ処理券:あり",
                "links": [],
                "lat": 35.6566647,
                "lng": 139.3107414
            },
            {
                "name": "ローソンストア１００ 西八王子店",
                "address": "東京都八王子市千人町3-3-1",
                "tel": "042-669-7799",
                "description": "指定袋:あり<br>40Lバラ売り:あり<br粗大ゴミ処理券:なし",
                "links": [],
                "lat": 35.6575953,
                "lng": 139.3112048
            },
            {
                "name": "桑原商店",
                "address": "東京都八王子市千人町3-7-3",
                "tel": "042-661-5065",
                "description": "指定袋:あり<br>40Lバラ売り:あり<br粗大ゴミ処理券:なし",
                "links": [],
                "lat": 35.6591755,
                "lng": 139.309025
            },
            {
                "name": "㈱マゴメ",
                "address": "東京都八王子市千人町4-9-22",
                "tel": "042-661-1653",
                "description": "指定袋:あり<br>40Lバラ売り:なし<br粗大ゴミ処理券:あり",
                "links": [],
                "lat": 35.6567361,
                "lng": 139.3057782
            },
            {
                "name": "ファミリーマート 八王子千人町店",
                "address": "東京都八王子市千人町4-13-18",
                "tel": "042-669-4708",
                "description": "指定袋:あり<br>40Lバラ売り:なし<br粗大ゴミ処理券:あり",
                "links": [],
                "lat": 35.6550685,
                "lng": 139.3075359
            },
            {
                "name": "㈲サカショー",
                "address": "東京都八王子市千人町4-14-14",
                "tel": "042-663-3020",
                "description": "指定袋:あり<br>40Lバラ売り:あり<br粗大ゴミ処理券:あり",
                "links": [],
                "lat": 35.6545065,
                "lng": 139.3070979
            },
            {
                "name": "セブンイレブン 八王子台町1丁目店",
                "address": "東京都八王子市台町1-24-14",
                "tel": "042-623-1671",
                "description": "指定袋:あり<br>40Lバラ売り:あり<br粗大ゴミ処理券:あり",
                "links": [],
                "lat": 35.6539273,
                "lng": 139.3209099
            },
            {
                "name": "クリエイトＳ・Ｄ 八王子台町店",
                "address": "東京都八王子市台町2-22-8",
                "tel": "042-621-0160",
                "description": "指定袋:あり<br>40Lバラ売り:あり<br粗大ゴミ処理券:あり",
                "links": [],
                "lat": 35.6539273,
                "lng": 139.3209099
            },
            {
                "name": "業務スーパー西八王子店",
                "address": "東京都八王子市台町2-2-24",
                "tel": "042-623-2157",
                "description": "指定袋:あり<br>40Lバラ売り:なし<br粗大ゴミ処理券:あり",
                "links": [],
                "lat": 35.6502814,
                "lng": 139.3217049
            },
            {
                "name": "セブンイレブン 八王子富士森公園北店",
                "address": "東京都八王子市台町3-12-11",
                "tel": "042-621-7779",
                "description": "指定袋:あり<br>40Lバラ売り:あり<br粗大ゴミ処理券:あり",
                "links": [],
                "lat": 35.6543447,
                "lng": 139.3222571
            },
            {
                "name": "スーパーアルプス 台町店",
                "address": "東京都八王子市台町3-24-20",
                "tel": "042-621-6755",
                "description": "指定袋:あり<br>40Lバラ売り:あり<br粗大ゴミ処理券:あり",
                "links": [],
                "lat": 35.6540795,
                "lng": 139.3195477
            },
            {
                "name": "サンドラッグ 西八王子店",
                "address": "東京都八王子市台町3-28-17",
                "tel": "042-625-5535",
                "description": "指定袋:あり<br>40Lバラ売り:なし<br粗大ゴミ処理券:あり",
                "links": [],
                "lat": 35.6539273,
                "lng": 139.3209099
            },
            {
                "name": "㈲髙水米穀店",
                "address": "東京都八王子市台町4-9-5",
                "tel": "042-622-2167",
                "description": "指定袋:あり<br>40Lバラ売り:あり<br粗大ゴミ処理券:なし",
                "links": [],
                "lat": 35.65781,
                "lng": 139.32105
            },
            {
                "name": "田倉商店",
                "address": "東京都八王子市台町4-22-9",
                "tel": "042-622-1677",
                "description": "指定袋:あり<br>40Lバラ売り:あり<br粗大ゴミ処理券:あり",
                "links": [],
                "lat": 35.6534157,
                "lng": 139.3364676
            },
            {
                "name": "ローソン 西八王子駅前店",
                "address": "東京都八王子市台町4-45-8",
                "tel": "042-666-0808",
                "description": "指定袋:あり<br>40Lバラ売り:なし<br粗大ゴミ処理券:あり",
                "links": [],
                "lat": 35.6568042,
                "lng": 139.3142025
            },
            {
                "name": "㈲杉崎包装資材",
                "address": "東京都八王子市台町4-46-15",
                "tel": "042-663-1551",
                "description": "指定袋:あり<br>40Lバラ売り:なし<br粗大ゴミ処理券:なし",
                "links": [],
                "lat": 35.6565044,
                "lng": 139.3151646
            },
            {
                "name": "セブンイレブン 西八王子駅南口店",
                "address": "東京都八王子市台町4-47-8",
                "tel": "042-663-1776",
                "description": "指定袋:あり<br>40Lバラ売り:あり<br粗大ゴミ処理券:あり",
                "links": [],
                "lat": 35.6559911,
                "lng": 139.3132807
            },
            {
                "name": "神嶋米穀店",
                "address": "東京都八王子市大楽寺町95",
                "tel": "042-651-4357",
                "description": "指定袋:あり<br>40Lバラ売り:あり<br粗大ゴミ処理券:あり",
                "links": [],
                "lat": 35.6813187,
                "lng": 139.2775488
            },
            {
                "name": "ローソン 八王子大楽寺町店",
                "address": "東京都八王子市大楽寺町130-1",
                "tel": "042-650-1737",
                "description": "指定袋:あり<br>40Lバラ売り:なし<br粗大ゴミ処理券:あり",
                "links": [],
                "lat": 35.6801896,
                "lng": 139.2805823
            },
            {
                "name": "セブンイレブン 八王子大楽寺店",
                "address": "東京都八王子市大楽寺町148-1",
                "tel": "042-651-4870",
                "description": "指定袋:あり<br>40Lバラ売り:あり<br粗大ゴミ処理券:あり",
                "links": [],
                "lat": 35.678886,
                "lng": 139.2821354
            },
            {
                "name": "ドラッグセイムス 大楽寺店",
                "address": "東京都八王子市大楽寺町156-1",
                "tel": "042-650-6351",
                "description": "指定袋:あり<br>40Lバラ売り:なし<br粗大ゴミ処理券:なし",
                "links": [],
                "lat": 35.67878779999999,
                "lng": 139.2833968
            },
            {
                "name": "まこと文房具店",
                "address": "東京都八王子市大楽寺町189-9",
                "tel": "042-652-9682",
                "description": "指定袋:あり<br>40Lバラ売り:あり<br粗大ゴミ処理券:あり",
                "links": [],
                "lat": 35.6780187,
                "lng": 139.2843352
            },
            {
                "name": "スーパーオザム 大楽寺店",
                "address": "東京都八王子市大楽寺町285",
                "tel": "042-621-0280",
                "description": "指定袋:あり<br>40Lバラ売り:なし<br粗大ゴミ処理券:あり",
                "links": [],
                "lat": 35.67419810000001,
                "lng": 139.2883177
            },
            {
                "name": "セブンイレブン 八王子弐分方町店",
                "address": "東京都八王子市大楽寺町337-4",
                "tel": "042-622-4137",
                "description": "指定袋:あり<br>40Lバラ売り:あり<br粗大ゴミ処理券:あり",
                "links": [],
                "lat": 35.6723619,
                "lng": 139.2908907
            },
            {
                "name": "ローソン 八王子四谷町交差点前店",
                "address": "東京都八王子市大楽寺町403-1",
                "tel": "042-628-4622",
                "description": "指定袋:あり<br>40Lバラ売り:なし<br粗大ゴミ処理券:なし",
                "links": [],
                "lat": 35.6733427,
                "lng": 139.2945095
            },
            {
                "name": "ＡＳＡ 元八王子",
                "address": "東京都八王子市大楽寺町410",
                "tel": "042-623-6210",
                "description": "指定袋:あり<br>40Lバラ売り:あり<br粗大ゴミ処理券:あり",
                "links": [],
                "lat": 35.6725947,
                "lng": 139.2947784
            },
            {
                "name": "ファミリーマート 八王子大楽寺町店",
                "address": "東京都八王子市大楽寺町484-1",
                "tel": "042-620-5213",
                "description": "指定袋:あり<br>40Lバラ売り:あり<br粗大ゴミ処理券:あり",
                "links": [],
                "lat": 35.671972,
                "lng": 139.2949636
            },
            {
                "name": "業務スーパー リカーキング 四谷店",
                "address": "東京都八王子市大楽寺町507-2",
                "tel": "042-626-6011",
                "description": "指定袋:あり<br>40Lバラ売り:なし<br粗大ゴミ処理券:あり",
                "links": [],
                "lat": 35.6723598,
                "lng": 139.2963164
            },
            {
                "name": "ドラッグイシバシ",
                "address": "東京都八王子市大楽寺町510-5",
                "tel": "042-626-4818",
                "description": "指定袋:あり<br>40Lバラ売り:なし<br粗大ゴミ処理券:なし",
                "links": [],
                "lat": 35.6716744,
                "lng": 139.2971745
            },
            {
                "name": "ファミリーマート 柚木大楽寺町店",
                "address": "東京都八王子市大楽寺町515",
                "tel": "042-620-5488",
                "description": "指定袋:あり<br>40Lバラ売り:あり<br粗大ゴミ処理券:あり",
                "links": [],
                "lat": 35.6710261,
                "lng": 139.2977971
            },
            {
                "name": "ファミリーマート 秀栄高尾駅北口店",
                "address": "東京都八王子市高尾町1583-1",
                "tel": "042-668-8606",
                "description": "指定袋:あり<br>40Lバラ売り:なし<br粗大ゴミ処理券:あり",
                "links": [],
                "lat": 35.6427047,
                "lng": 139.2813602
            },
            {
                "name": "セブンイレブン 八王子高尾北口店",
                "address": "東京都八王子市高尾町1585-1",
                "tel": "042-662-2410",
                "description": "指定袋:あり<br>40Lバラ売り:あり<br粗大ゴミ処理券:あり",
                "links": [],
                "lat": 35.6428592,
                "lng": 139.2818114
            },
            {
                "name": "ファミリーマート 高尾駅東店",
                "address": "東京都八王子市高尾町1599-33",
                "tel": "042-669-0069",
                "description": "指定袋:あり<br>40Lバラ売り:なし<br粗大ゴミ処理券:あり",
                "links": [],
                "lat": 35.6443167,
                "lng": 139.2828657
            },
            {
                "name": "大用商店",
                "address": "東京都八王子市高尾町1647",
                "tel": "042-661-0208",
                "description": "指定袋:あり<br>40Lバラ売り:あり<br粗大ゴミ処理券:あり",
                "links": [],
                "lat": 35.6423446,
                "lng": 139.2777865
            },
            {
                "name": "金子商店",
                "address": "東京都八王子市高尾町1655",
                "tel": "042-661-0101",
                "description": "指定袋:あり<br>40Lバラ売り:あり<br粗大ゴミ処理券:あり",
                "links": [],
                "lat": 35.6424562,
                "lng": 139.2772716
            },
            {
                "name": "小宮商店",
                "address": "東京都八王子市高尾町1720-11",
                "tel": "042-663-7756",
                "description": "指定袋:あり<br>40Lバラ売り:あり<br粗大ゴミ処理券:あり",
                "links": [],
                "lat": 35.6428762,
                "lng": 139.2754104
            },
            {
                "name": "セブンイレブン 高尾山インター店",
                "address": "東京都八王子市高尾町1806-1",
                "tel": "042-666-3286",
                "description": "指定袋:あり<br>40Lバラ売り:あり<br粗大ゴミ処理券:あり",
                "links": [],
                "lat": 35.6333012,
                "lng": 139.2562665
            },
            {
                "name": "ファミリーマート 八王子高尾町店",
                "address": "東京都八王子市高尾町1819-1",
                "tel": "042-668-9177",
                "description": "指定袋:あり<br>40Lバラ売り:なし<br粗大ゴミ処理券:あり",
                "links": [],
                "lat": 35.63572449999999,
                "lng": 139.2702645
            },
            {
                "name": "稲毛屋",
                "address": "東京都八王子市高尾町2280",
                "tel": "042-661-8231",
                "description": "指定袋:あり<br>40Lバラ売り:あり<br粗大ゴミ処理券:あり",
                "links": [],
                "lat": 35.632233,
                "lng": 139.2704209
            },
            {
                "name": "峯尾商店",
                "address": "東京都八王子市高尾町2293",
                "tel": "042-661-9045",
                "description": "指定袋:あり<br>40Lバラ売り:あり<br粗大ゴミ処理券:あり",
                "links": [],
                "lat": 35.6309494,
                "lng": 139.2697097
            },
            {
                "name": "ファミリーマート 八王子甲州街道店",
                "address": "東京都八王子市高倉町1-2",
                "tel": "042-631-0726",
                "description": "指定袋:あり<br>40Lバラ売り:なし<br粗大ゴミ処理券:あり",
                "links": [],
                "lat": 35.6652949,
                "lng": 139.3612364
            },
            {
                "name": "セブンイレブン 八王子高倉町店",
                "address": "東京都八王子市高倉町6-1",
                "tel": "042-642-3090",
                "description": "指定袋:あり<br>40Lバラ売り:なし<br粗大ゴミ処理券:あり",
                "links": [],
                "lat": 35.6657434,
                "lng": 139.3628379
            },
            {
                "name": "オーケー 北八王子店",
                "address": "東京都八王子市高倉町7-1",
                "tel": "042-649-8115",
                "description": "指定袋:あり<br>40Lバラ売り:なし<br粗大ゴミ処理券:なし",
                "links": [],
                "lat": 35.6665341,
                "lng": 139.3643956
            },
            {
                "name": "ファミリーマート 石川工業団地入口店",
                "address": "東京都八王子市高倉町21-1",
                "tel": "042-660-5520",
                "description": "指定袋:あり<br>40Lバラ売り:なし<br粗大ゴミ処理券:あり",
                "links": [],
                "lat": 35.6698179,
                "lng": 139.367669
            },
            {
                "name": "生活協同組合コープみらい コープ高倉店",
                "address": "東京都八王子市高倉町49-3",
                "tel": "042-648-7898",
                "description": "指定袋:あり<br>40Lバラ売り:なし<br粗大ゴミ処理券:なし",
                "links": [],
                "lat": 35.6650705,
                "lng": 139.3691102
            },
            {
                "name": "セブンイレブン 八王子高倉南店",
                "address": "東京都八王子市高倉町50-4",
                "tel": "042-646-1711",
                "description": "指定袋:あり<br>40Lバラ売り:あり<br粗大ゴミ処理券:あり",
                "links": [],
                "lat": 35.6637678,
                "lng": 139.3684285
            },
            {
                "name": "業務スーパー リカーキング 高倉店",
                "address": "東京都八王子市高倉町50-6",
                "tel": "042-644-7151",
                "description": "指定袋:あり<br>40Lバラ売り:なし<br粗大ゴミ処理券:あり",
                "links": [],
                "lat": 35.6635949,
                "lng": 139.368286
            },
            {
                "name": "サンドラッグ 八王子高倉店",
                "address": "東京都八王子市高倉町55-10",
                "tel": "042-631-5201",
                "description": "指定袋:あり<br>40Lバラ売り:なし<br粗大ゴミ処理券:あり",
                "links": [],
                "lat": 35.6649039,
                "lng": 139.3671848
            },
            {
                "name": "スーパーアルプス 高倉店",
                "address": "東京都八王子市高倉町66-16",
                "tel": "042-646-3435",
                "description": "指定袋:あり<br>40Lバラ売り:あり<br粗大ゴミ処理券:あり",
                "links": [],
                "lat": 35.6639215,
                "lng": 139.3674052
            },
            {
                "name": "ファミリーマート 八王子滝山町店",
                "address": "東京都八王子市滝山町1-25-2",
                "tel": "042-692-1373",
                "description": "指定袋:あり<br>40Lバラ売り:なし<br粗大ゴミ処理券:あり",
                "links": [],
                "lat": 35.6881661,
                "lng": 139.3419161
            },
            {
                "name": "ファミリーマート 八王子インター店",
                "address": "東京都八王子市滝山町1-549-1",
                "tel": "042-696-6406",
                "description": "指定袋:あり<br>40Lバラ売り:なし<br粗大ゴミ処理券:あり",
                "links": [],
                "lat": 35.678013,
                "lng": 139.335314
            },
            {
                "name": "やさいの食卓八農菜",
                "address": "東京都八王子市滝山町1-592 道の駅八王子滝山内",
                "tel": "042-691-8083",
                "description": "指定袋:あり<br>40Lバラ売り:なし<br粗大ゴミ処理券:なし",
                "links": [],
                "lat": 35.6872677,
                "lng": 139.3409628
            },
            {
                "name": "ファミリーマート 純心学園前店",
                "address": "東京都八王子市滝山町2-596-1",
                "tel": "042-696-4281",
                "description": "指定袋:あり<br>40Lバラ売り:なし<br粗大ゴミ処理券:あり",
                "links": [],
                "lat": 35.6924358,
                "lng": 139.334443
            },
            {
                "name": "セブンイレブン 八王子館町店",
                "address": "東京都八王子市館町249-1",
                "tel": "042-664-6963",
                "description": "指定袋:あり<br>40Lバラ売り:あり<br粗大ゴミ処理券:あり",
                "links": [],
                "lat": 35.6352587,
                "lng": 139.3010106
            },
            {
                "name": "㈲学園サービス 拓殖大学購買会",
                "address": "東京都八王子市館町815-1",
                "tel": "042-664-6658",
                "description": "指定袋:あり<br>40Lバラ売り:なし<br粗大ゴミ処理券:なし",
                "links": [],
                "lat": 35.6268347,
                "lng": 139.2803909
            },
            {
                "name": "㈲ミネ薬局 館ヶ丘店",
                "address": "東京都八王子市館町1097-2-5-112",
                "tel": "042-664-7275",
                "description": "指定袋:あり<br>40Lバラ売り:あり<br粗大ゴミ処理券:あり",
                "links": [],
                "lat": 35.6276171,
                "lng": 139.2888564
            },
            {
                "name": "ファミリーマート 秀栄館町店",
                "address": "東京都八王子市館町1097-206",
                "tel": "042-669-4630",
                "description": "指定袋:あり<br>40Lバラ売り:あり<br粗大ゴミ処理券:あり",
                "links": [],
                "lat": 35.631126,
                "lng": 139.289529
            },
            {
                "name": "ビッグ・エー 八王子館ケ丘団地店",
                "address": "東京都八王子市館町1097-2-8",
                "tel": "042-661-1003",
                "description": "指定袋:あり<br>40Lバラ売り:あり<br粗大ゴミ処理券:あり",
                "links": [],
                "lat": 35.6273105,
                "lng": 139.2893317
            },
            {
                "name": "㈱三和 フードワン ゆりのき台店",
                "address": "東京都八王子市館町2300-1",
                "tel": "042-666-1200",
                "description": "指定袋:あり<br>40Lバラ売り:なし<br粗大ゴミ処理券:あり",
                "links": [],
                "lat": 35.6267692,
                "lng": 139.3014373
            },
            {
                "name": "酒市場",
                "address": "東京都八王子市田町2-5",
                "tel": "042-625-1330",
                "description": "指定袋:あり<br>40Lバラ売り:なし<br粗大ゴミ処理券:あり",
                "links": [],
                "lat": 35.6657258,
                "lng": 139.3360712
            },
            {
                "name": "㈱創学サービス",
                "address": "東京都八王子市丹木町1-236",
                "tel": "042-691-3551",
                "description": "指定袋:あり<br>40Lバラ売り:あり<br粗大ゴミ処理券:あり",
                "links": [],
                "lat": 35.6899788,
                "lng": 139.3270774
            },
            {
                "name": "ローソンLTF八王子滝山街道店",
                "address": "東京都八王子市丹木町3-45",
                "tel": "042-691-3901",
                "description": "指定袋:あり<br>40Lバラ売り:あり<br粗大ゴミ処理券:あり",
                "links": [],
                "lat": 35.6968909,
                "lng": 139.3265398
            },
            {
                "name": "ファミリーマート 八王子丹木町店",
                "address": "東京都八王子市丹木町3-92-5",
                "tel": "042-696-1878",
                "description": "指定袋:あり<br>40Lバラ売り:あり<br粗大ゴミ処理券:あり",
                "links": [],
                "lat": 35.6979918,
                "lng": 139.3242346
            },
            {
                "name": "セブンイレブン 八王子丹木町店",
                "address": "東京都八王子市丹木町3-214-1",
                "tel": "042-692-2558",
                "description": "指定袋:あり<br>40Lバラ売り:あり<br粗大ゴミ処理券:なし",
                "links": [],
                "lat": 35.696317,
                "lng": 139.3253489
            },
            {
                "name": "業務スーパー リカーキング 寺田店",
                "address": "東京都八王子市寺田町246",
                "tel": "042-666-6171",
                "description": "指定袋:あり<br>40Lバラ売り:なし<br粗大ゴミ処理券:あり",
                "links": [],
                "lat": 35.6301327,
                "lng": 139.3113837
            },
            {
                "name": "中山薬局 寺田店",
                "address": "東京都八王子市寺田町432 グリーンヒル寺田101-104",
                "tel": "042-665-3697",
                "description": "指定袋:あり<br>40Lバラ売り:なし<br粗大ゴミ処理券:あり",
                "links": [],
                "lat": 35.6186111,
                "lng": 139.3004138
            },
            {
                "name": "㈱ミヤハラ",
                "address": "東京都八王子市寺町6",
                "tel": "042-625-6563",
                "description": "指定袋:あり<br>40Lバラ売り:あり<br粗大ゴミ処理券:なし",
                "links": [],
                "lat": 35.6570793,
                "lng": 139.3328386
            },
            {
                "name": "㈲アサヒメディアサービス",
                "address": "東京都八王子市寺町29-2",
                "tel": "042-622-5575",
                "description": "指定袋:あり<br>40Lバラ売り:なし<br粗大ゴミ処理券:なし",
                "links": [],
                "lat": 35.6555642,
                "lng": 139.3327017
            },
            {
                "name": "ファミリーマート 八王子寺町店",
                "address": "東京都八王子市寺町47",
                "tel": "042-620-7533",
                "description": "指定袋:あり<br>40Lバラ売り:なし<br粗大ゴミ処理券:あり",
                "links": [],
                "lat": 35.6575885,
                "lng": 139.3337026
            },
            {
                "name": "八百由鈴木商店",
                "address": "東京都八王子市天神町10",
                "tel": "042-622-4573",
                "description": "指定袋:あり<br>40Lバラ売り:あり<br粗大ゴミ処理券:あり",
                "links": [],
                "lat": 35.6576958,
                "lng": 139.3306128
            },
            {
                "name": "ファミリーマート 八王子戸吹町店",
                "address": "東京都八王子市戸吹町166-29",
                "tel": "042-696-6006",
                "description": "指定袋:あり<br>40Lバラ売り:なし<br粗大ゴミ処理券:あり",
                "links": [],
                "lat": 35.7079353,
                "lng": 139.2966113
            },
            {
                "name": "セブンイレブン 八王子戸吹町店",
                "address": "東京都八王子市戸吹町1469-1",
                "tel": "042-692-3632",
                "description": "指定袋:あり<br>40Lバラ売り:なし<br粗大ゴミ処理券:なし",
                "links": [],
                "lat": 35.7059629,
                "lng": 139.2970858
            },
            {
                "name": "ドン・キホーテ 八王子駅前店",
                "address": "東京都八王子市中町1-3",
                "tel": "042-646-3810",
                "description": "指定袋:あり<br>40Lバラ売り:あり<br粗大ゴミ処理券:なし",
                "links": [],
                "lat": 35.6579615,
                "lng": 139.3373199
            },
            {
                "name": "ファミリーマート 八王子ユーロード店",
                "address": "東京都八王子市中町4-3",
                "tel": "042-631-8200",
                "description": "指定袋:あり<br>40Lバラ売り:あり<br粗大ゴミ処理券:あり",
                "links": [],
                "lat": 35.6582598,
                "lng": 139.3365954
            },
            {
                "name": "ノムラ薬局 八王子中町店",
                "address": "東京都八王子市中町5-10",
                "tel": "042-634-8928",
                "description": "指定袋:あり<br>40Lバラ売り:なし<br粗大ゴミ処理券:なし",
                "links": [],
                "lat": 35.6580656,
                "lng": 139.3364383
            },
            {
                "name": "ファミリーマート 八王子中町店",
                "address": "東京都八王子市中町6-4",
                "tel": "042-628-7614",
                "description": "指定袋:あり<br>40Lバラ売り:なし<br粗大ゴミ処理券:あり",
                "links": [],
                "lat": 35.6579374,
                "lng": 139.3355811
            },
            {
                "name": "加藤商店",
                "address": "東京都八王子市長沼町23-18",
                "tel": "042-636-7622",
                "description": "指定袋:あり<br>40Lバラ売り:なし<br粗大ゴミ処理券:なし",
                "links": [],
                "lat": 35.6428425,
                "lng": 139.3787818
            },
            {
                "name": "セブンイレブン 八王子長沼東店",
                "address": "東京都八王子市長沼町200-2",
                "tel": "042-636-0711",
                "description": "指定袋:あり<br>40Lバラ売り:あり<br粗大ゴミ処理券:あり",
                "links": [],
                "lat": 35.6424205,
                "lng": 139.3729901
            },
            {
                "name": "ローソン 八王子長沼店",
                "address": "東京都八王子市長沼町202-5",
                "tel": "042-636-5464",
                "description": "指定袋:あり<br>40Lバラ売り:なし<br粗大ゴミ処理券:あり",
                "links": [],
                "lat": 35.6422756,
                "lng": 139.3716215
            },
            {
                "name": "ビッグ・エー 八王子長沼町店",
                "address": "東京都八王子市長沼町943-9",
                "tel": "042-636-2031",
                "description": "指定袋:あり<br>40Lバラ売り:なし<br粗大ゴミ処理券:あり",
                "links": [],
                "lat": 35.6419773,
                "lng": 139.3620386
            },
            {
                "name": "セブンイレブン 八王子長沼町店",
                "address": "東京都八王子市長沼町1305-12",
                "tel": "042-648-6117",
                "description": "指定袋:あり<br>40Lバラ売り:なし<br粗大ゴミ処理券:あり",
                "links": [],
                "lat": 35.64792,
                "lng": 139.359446
            },
            {
                "name": "リカーキング 北野店",
                "address": "東京都八王子市長沼町1305-13",
                "tel": "042-645-2282",
                "description": "指定袋:あり<br>40Lバラ売り:なし<br粗大ゴミ処理券:あり",
                "links": [],
                "lat": 35.6477335,
                "lng": 139.3598237
            },
            {
                "name": "ドラッグセイムス 北野店",
                "address": "東京都八王子市長沼町1305-15",
                "tel": "042-631-0520",
                "description": "指定袋:あり<br>40Lバラ売り:なし<br粗大ゴミ処理券:なし",
                "links": [],
                "lat": 35.64784059999999,
                "lng": 139.3606634
            },
            {
                "name": "ファミリーマート 長沼団地入口店",
                "address": "東京都八王子市長沼町1308-5",
                "tel": "042-643-5433",
                "description": "指定袋:あり<br>40Lバラ売り:あり<br粗大ゴミ処理券:あり",
                "links": [],
                "lat": 35.6456347,
                "lng": 139.3607066
            },
            {
                "name": "㈲斉藤商店",
                "address": "東京都八王子市中野上町1-4-6",
                "tel": "042-622-2564",
                "description": "指定袋:あり<br>40Lバラ売り:あり<br粗大ゴミ処理券:なし",
                "links": [],
                "lat": 35.6685165,
                "lng": 139.3310093
            },
            {
                "name": "クリエイトＳ・Ｄ 八王子中野上町店",
                "address": "東京都八王子市中野上町1-32-17",
                "tel": "042-625-1350",
                "description": "指定袋:あり<br>40Lバラ売り:あり<br粗大ゴミ処理券:あり",
                "links": [],
                "lat": 35.6682987,
                "lng": 139.3228
            },
            {
                "name": "㈲澤藤新聞舗",
                "address": "東京都八王子市中野上町2-2-8",
                "tel": "042-626-5140",
                "description": "指定袋:あり<br>40Lバラ売り:なし<br粗大ゴミ処理券:なし",
                "links": [],
                "lat": 35.6690712,
                "lng": 139.3290152
            },
            {
                "name": "三幸商事㈱",
                "address": "東京都八王子市中野上町2-29-25",
                "tel": "042-625-9680",
                "description": "指定袋:あり<br>40Lバラ売り:なし<br粗大ゴミ処理券:なし",
                "links": [],
                "lat": 35.6699844,
                "lng": 139.3206839
            },
            {
                "name": "ファミリーマート 中野中央通り店",
                "address": "東京都八王子市中野上町2-32-12",
                "tel": "042-655-8955",
                "description": "指定袋:あり<br>40Lバラ売り:なし<br粗大ゴミ処理券:あり",
                "links": [],
                "lat": 35.671522,
                "lng": 139.3204758
            },
            {
                "name": "ファミリーマート 八王子秋川街道店",
                "address": "東京都八王子市中野上町5-38-11",
                "tel": "042-620-5861",
                "description": "指定袋:あり<br>40Lバラ売り:あり<br粗大ゴミ処理券:あり",
                "links": [],
                "lat": 35.6748206,
                "lng": 139.3137807
            },
            {
                "name": "いなげや 八王子中野店",
                "address": "東京都八王子市中野山王1-11-16",
                "tel": "042-626-2741",
                "description": "指定袋:あり<br>40Lバラ売り:なし<br粗大ゴミ処理券:あり",
                "links": [],
                "lat": 35.67263459999999,
                "lng": 139.3292144
            },
            {
                "name": "セイジョー八王子中野店",
                "address": "東京都八王子市中野山王1-11-16",
                "tel": "042-625-0280",
                "description": "指定袋:あり<br>40Lバラ売り:なし<br粗大ゴミ処理券:あり",
                "links": [],
                "lat": 35.67263459999999,
                "lng": 139.3292144
            },
            {
                "name": "スーパーアルプス 中野店",
                "address": "東京都八王子市中野山王1-26-7",
                "tel": "042-625-2640",
                "description": "指定袋:あり<br>40Lバラ売り:あり<br粗大ゴミ処理券:あり",
                "links": [],
                "lat": 35.6728263,
                "lng": 139.3255695
            },
            {
                "name": "セブンイレブン 八王子中野山王１丁目店",
                "address": "東京都八王子市中野山王1-31-7",
                "tel": "042-623-1822",
                "description": "指定袋:あり<br>40Lバラ売り:なし<br粗大ゴミ処理券:なし",
                "links": [],
                "lat": 35.6723185,
                "lng": 139.3244222
            },
            {
                "name": "セブンイレブン 八王子インター南店",
                "address": "東京都八王子市中野山王2-2-16",
                "tel": "042-621-1114",
                "description": "指定袋:あり<br>40Lバラ売り:あり<br粗大ゴミ処理券:あり",
                "links": [],
                "lat": 35.6724716,
                "lng": 139.3315261
            },
            {
                "name": "三和薬品",
                "address": "東京都八王子市中野山王2-14-3",
                "tel": "042-626-2391",
                "description": "指定袋:あり<br>40Lバラ売り:なし<br粗大ゴミ処理券:あり",
                "links": [],
                "lat": 35.6736697,
                "lng": 139.3292531
            },
            {
                "name": "ＣＯＳＭＥＴＩＣ ＳＵＳＡＫＩ",
                "address": "東京都八王子市中野山王3-6-5-104",
                "tel": "042-623-5385",
                "description": "指定袋:あり<br>40Lバラ売り:あり<br粗大ゴミ処理券:あり",
                "links": [],
                "lat": 35.6742897,
                "lng": 139.324703
            },
            {
                "name": "スーパーアルプス 甲の原店",
                "address": "東京都八王子市中野町2689-3",
                "tel": "042-628-4141",
                "description": "指定袋:あり<br>40Lバラ売り:あり<br粗大ゴミ処理券:あり",
                "links": [],
                "lat": 35.681551,
                "lng": 139.3173558
            },
            {
                "name": "サンドラッグ 八王子中野町店",
                "address": "東京都八王子市中野町2744-1",
                "tel": "042-622-9502",
                "description": "指定袋:あり<br>40Lバラ売り:なし<br粗大ゴミ処理券:あり",
                "links": [],
                "lat": 35.6796047,
                "lng": 139.3155447
            },
            {
                "name": "パナピットこやまでんき",
                "address": "東京都八王子市長房町335-4",
                "tel": "042-664-4196",
                "description": "指定袋:あり<br>40Lバラ売り:あり<br粗大ゴミ処理券:あり",
                "links": [],
                "lat": 35.658615,
                "lng": 139.299841
            },
            {
                "name": "㈲髙水米穀店 長房支店",
                "address": "東京都八王子市長房町375-6",
                "tel": "042-661-7434",
                "description": "指定袋:あり<br>40Lバラ売り:あり<br粗大ゴミ処理券:なし",
                "links": [],
                "lat": 35.6552073,
                "lng": 139.2983042
            },
            {
                "name": "ローソン 八王子長房町店",
                "address": "東京都八王子市長房町450-1",
                "tel": "042-673-5154",
                "description": "指定袋:あり<br>40Lバラ売り:なし<br粗大ゴミ処理券:あり",
                "links": [],
                "lat": 35.653552,
                "lng": 139.2995643
            },
            {
                "name": "スーパーアルプス 長房店",
                "address": "東京都八王子市長房町550",
                "tel": "042-664-0111",
                "description": "指定袋:あり<br>40Lバラ売り:あり<br粗大ゴミ処理券:あり",
                "links": [],
                "lat": 35.655164,
                "lng": 139.2970836
            },
            {
                "name": "たかおか食器店",
                "address": "東京都八王子市長房町551-11",
                "tel": "042-661-7805",
                "description": "指定袋:あり<br>40Lバラ売り:あり<br粗大ゴミ処理券:あり",
                "links": [],
                "lat": 35.6552412,
                "lng": 139.2963927
            },
            {
                "name": "ファミリーマート 八王子長房町店",
                "address": "東京都八王子市長房町1410-1",
                "tel": "042-668-4121",
                "description": "指定袋:あり<br>40Lバラ売り:あり<br粗大ゴミ処理券:あり",
                "links": [],
                "lat": 35.65182060000001,
                "lng": 139.2903012
            },
            {
                "name": "セブンイレブン 八王子長房町店",
                "address": "東京都八王子市長房町1465-6",
                "tel": "042-667-6225",
                "description": "指定袋:あり<br>40Lバラ売り:あり<br粗大ゴミ処理券:あり",
                "links": [],
                "lat": 35.6526266,
                "lng": 139.2914719
            },
            {
                "name": "セブンイレブン 八王子みなみ野シティ店",
                "address": "東京都八王子市七国1-1-1",
                "tel": "042-636-1071",
                "description": "指定袋:あり<br>40Lバラ売り:あり<br粗大ゴミ処理券:あり",
                "links": [],
                "lat": 35.6253952,
                "lng": 139.3271983
            },
            {
                "name": "スーパーアルプス みなみ野店",
                "address": "東京都八王子市七国3-6",
                "tel": "042-632-7911",
                "description": "指定袋:あり<br>40Lバラ売り:あり<br粗大ゴミ処理券:あり",
                "links": [],
                "lat": 35.619094,
                "lng": 139.3222574
            },
            {
                "name": "ファミリーマート 八王子七国五丁目店",
                "address": "東京都八王子市七国5-1-1",
                "tel": "042-632-5532",
                "description": "指定袋:あり<br>40Lバラ売り:なし<br粗大ゴミ処理券:あり",
                "links": [],
                "lat": 35.6259592,
                "lng": 139.3193643
            },
            {
                "name": "ウエルシア 八王子七国店",
                "address": "東京都八王子市七国5-28-1",
                "tel": "042-632-8520",
                "description": "指定袋:あり<br>40Lバラ売り:なし<br粗大ゴミ処理券:あり",
                "links": [],
                "lat": 35.6197088,
                "lng": 139.3215372
            },
            {
                "name": "あらいと",
                "address": "東京都八王子市並木町14-20",
                "tel": "042-663-6966",
                "description": "指定袋:あり<br>40Lバラ売り:あり<br粗大ゴミ処理券:あり",
                "links": [],
                "lat": 35.6515983,
                "lng": 139.3011963
            },
            {
                "name": "内田米店",
                "address": "東京都八王子市並木町15-13",
                "tel": "042-661-3933",
                "description": "指定袋:あり<br>40Lバラ売り:なし<br粗大ゴミ処理券:なし",
                "links": [],
                "lat": 35.6510532,
                "lng": 139.2999349
            },
            {
                "name": "ヤオコー 八王子並木町店",
                "address": "東京都八王子市並木町35-1",
                "tel": "042-668-7211",
                "description": "指定袋:あり<br>40Lバラ売り:あり<br粗大ゴミ処理券:あり",
                "links": [],
                "lat": 35.6555485,
                "lng": 139.3038896
            },
            {
                "name": "サンドラッグ 八王子並木町店",
                "address": "東京都八王子市並木町35-1",
                "tel": "042-668-9175",
                "description": "指定袋:あり<br>40Lバラ売り:なし<br粗大ゴミ処理券:あり",
                "links": [],
                "lat": 35.6555485,
                "lng": 139.3038896
            },
            {
                "name": "ファミリーマート 八王子並木町店",
                "address": "東京都八王子市並木町39-34",
                "tel": "042-668-8819",
                "description": "指定袋:あり<br>40Lバラ売り:あり<br粗大ゴミ処理券:あり",
                "links": [],
                "lat": 35.6558794,
                "lng": 139.3053164
            },
            {
                "name": "㈲楢原米穀店",
                "address": "東京都八王子市楢原町382",
                "tel": "042-622-4771",
                "description": "指定袋:あり<br>40Lバラ売り:あり<br粗大ゴミ処理券:なし",
                "links": [],
                "lat": 35.6769033,
                "lng": 139.3115773
            },
            {
                "name": "ファミリーマート 八王子楢原町店",
                "address": "東京都八王子市楢原町445-1",
                "tel": "042-620-4521",
                "description": "指定袋:あり<br>40Lバラ売り:あり<br粗大ゴミ処理券:あり",
                "links": [],
                "lat": 35.68123840000001,
                "lng": 139.3059111
            },
            {
                "name": "セブンイレブン 八王子楢原店",
                "address": "東京都八王子市楢原町456-1",
                "tel": "042-627-5701",
                "description": "指定袋:あり<br>40Lバラ売り:あり<br粗大ゴミ処理券:あり",
                "links": [],
                "lat": 35.6795416,
                "lng": 139.3090005
            },
            {
                "name": "ジェーソン 八王子楢原店 ",
                "address": "東京都八王子市楢原町583-1",
                "tel": "042-623-3750",
                "description": "指定袋:あり<br>40Lバラ売り:なし<br粗大ゴミ処理券:なし",
                "links": [],
                "lat": 35.6826917,
                "lng": 139.3049549
            },
            {
                "name": "上木商店",
                "address": "東京都八王子市楢原町1036-41",
                "tel": "042-624-4353",
                "description": "指定袋:あり<br>40Lバラ売り:なし<br粗大ゴミ処理券:なし",
                "links": [],
                "lat": 35.682318,
                "lng": 139.3094375
            },
            {
                "name": "セブンイレブン 八王子東楢原店",
                "address": "東京都八王子市楢原町1247-5",
                "tel": "042-624-2500",
                "description": "指定袋:あり<br>40Lバラ売り:なし<br粗大ゴミ処理券:あり",
                "links": [],
                "lat": 35.6781676,
                "lng": 139.3151466
            },
            {
                "name": "さつき薬局 楢原店",
                "address": "東京都八王子市楢原町1482-2",
                "tel": "042-623-8545",
                "description": "指定袋:あり<br>40Lバラ売り:なし<br粗大ゴミ処理券:なし",
                "links": [],
                "lat": 35.6835903,
                "lng": 139.2996314
            },
            {
                "name": "ウエルシア 楢原コピオ店",
                "address": "東京都八王子市楢原町1818-15 コピオ楢原内",
                "tel": "042-655-1189",
                "description": "指定袋:あり<br>40Lバラ売り:なし<br粗大ゴミ処理券:あり",
                "links": [],
                "lat": 35.6869951,
                "lng": 139.305759
            },
            {
                "name": "ケーヨーデイツー 楢原店",
                "address": "東京都八王子市楢原町1818-15",
                "tel": "042-628-9643",
                "description": "指定袋:あり<br>40Lバラ売り:あり<br粗大ゴミ処理券:あり",
                "links": [],
                "lat": 35.6869951,
                "lng": 139.305759
            },
            {
                "name": "スーパーアルプス 楢原店",
                "address": "東京都八王子市楢原町1818-15",
                "tel": "042-620-2711",
                "description": "指定袋:あり<br>40Lバラ売り:あり<br粗大ゴミ処理券:あり",
                "links": [],
                "lat": 35.6869951,
                "lng": 139.305759
            },
            {
                "name": "南陽台地域福祉センター",
                "address": "東京都八王子市南陽台1-12-17",
                "tel": "042-670-4347",
                "description": "指定袋:あり<br>40Lバラ売り:なし<br粗大ゴミ処理券:あり",
                "links": [],
                "lat": 35.6335146,
                "lng": 139.3746561
            },
            {
                "name": "㈲木村屋酒店",
                "address": "東京都八王子市西浅川町18",
                "tel": "042-661-0007",
                "description": "指定袋:あり<br>40Lバラ売り:あり<br粗大ゴミ処理券:あり",
                "links": [],
                "lat": 35.6401998,
                "lng": 139.2728759
            },
            {
                "name": "峯尾商店",
                "address": "東京都八王子市西浅川町19",
                "tel": "042-661-0140",
                "description": "指定袋:あり<br>40Lバラ売り:あり<br粗大ゴミ処理券:あり",
                "links": [],
                "lat": 35.6403067,
                "lng": 139.272631
            },
            {
                "name": "㈲佐藤青果食料品店",
                "address": "東京都八王子市西浅川町92",
                "tel": "042-661-0133",
                "description": "指定袋:あり<br>40Lバラ売り:あり<br粗大ゴミ処理券:なし",
                "links": [],
                "lat": 35.6411468,
                "lng": 139.2733808
            },
            {
                "name": "セブンイレブン 八王子西片倉3丁目店",
                "address": "東京都八王子市西片倉3-11-17",
                "tel": "042-635-5307",
                "description": "指定袋:あり<br>40Lバラ売り:あり<br粗大ゴミ処理券:あり",
                "links": [],
                "lat": 35.635549,
                "lng": 139.3298873
            },
            {
                "name": "森田屋酒店",
                "address": "東京都八王子市西寺方町41-1",
                "tel": "042-651-3187",
                "description": "指定袋:あり<br>40Lバラ売り:あり<br粗大ゴミ処理券:あり",
                "links": [],
                "lat": 35.6725112,
                "lng": 139.2614725
            },
            {
                "name": "スーパーアルプス 恩方店",
                "address": "東京都八王子市西寺方町69-1",
                "tel": "042-651-9311",
                "description": "指定袋:あり<br>40Lバラ売り:あり<br粗大ゴミ処理券:あり",
                "links": [],
                "lat": 35.6731819,
                "lng": 139.263558
            },
            {
                "name": "読売センター八王子恩方",
                "address": "東京都八王子市西寺方町347-1",
                "tel": "042-651-0261",
                "description": "指定袋:あり<br>40Lバラ売り:なし<br粗大ゴミ処理券:なし",
                "links": [],
                "lat": 35.6741623,
                "lng": 139.2654318
            },
            {
                "name": "クリエイトＳ・Ｄ 八王子西寺方店",
                "address": "東京都八王子市西寺方町353",
                "tel": "042-650-0655",
                "description": "指定袋:あり<br>40Lバラ売り:あり<br粗大ゴミ処理券:あり",
                "links": [],
                "lat": 35.6742492,
                "lng": 139.266202
            },
            {
                "name": "セブンイレブン 八王子西寺方店",
                "address": "東京都八王子市西寺方町375-2",
                "tel": "042-651-6349",
                "description": "指定袋:あり<br>40Lバラ売り:あり<br粗大ゴミ処理券:あり",
                "links": [],
                "lat": 35.6750999,
                "lng": 139.2676185
            },
            {
                "name": "ドラッグセイムス 西寺方店",
                "address": "東京都八王子市西寺方町385-1",
                "tel": "042-650-5527",
                "description": "指定袋:あり<br>40Lバラ売り:なし<br粗大ゴミ処理券:なし",
                "links": [],
                "lat": 35.6759609,
                "lng": 139.2678872
            },
            {
                "name": "エコス 西寺方店",
                "address": "東京都八王子市西寺方町482-1",
                "tel": "042-651-6301",
                "description": "指定袋:あり<br>40Lバラ売り:なし<br粗大ゴミ処理券:あり",
                "links": [],
                "lat": 35.6780455,
                "lng": 139.2701968
            },
            {
                "name": "ウエルシア 八王子弐分方店",
                "address": "東京都八王子市弐分方町481-4",
                "tel": "042-655-2774",
                "description": "指定袋:あり<br>40Lバラ売り:なし<br粗大ゴミ処理券:あり",
                "links": [],
                "lat": 35.6726858,
                "lng": 139.2838622
            },
            {
                "name": "ＪＡ八王子経済センター 元八王子店",
                "address": "東京都八王子市弐分方町785",
                "tel": "042-625-1235",
                "description": "指定袋:あり<br>40Lバラ売り:なし<br粗大ゴミ処理券:なし",
                "links": [],
                "lat": 35.6704567,
                "lng": 139.2925997
            },
            {
                "name": "きりんや",
                "address": "東京都八王子市狭間町1450-2",
                "tel": "042-664-5407",
                "description": "指定袋:あり<br>40Lバラ売り:あり<br粗大ゴミ処理券:なし",
                "links": [],
                "lat": 35.6387127,
                "lng": 139.2939465
            },
            {
                "name": "セブンイレブン 八王子狭間町店",
                "address": "東京都八王子市狭間町1450-5",
                "tel": "042-664-6008",
                "description": "指定袋:あり<br>40Lバラ売り:なし<br粗大ゴミ処理券:あり",
                "links": [],
                "lat": 35.63886,
                "lng": 139.2935106
            },
            {
                "name": "イトーヨーカドー 八王子店",
                "address": "東京都八王子市狭間町1462-1",
                "tel": "042-662-5211",
                "description": "指定袋:あり<br>40Lバラ売り:あり<br粗大ゴミ処理券:なし",
                "links": [],
                "lat": 35.6380448,
                "lng": 139.293491
            },
            {
                "name": "レヴェーユ・モリクボ",
                "address": "東京都八王子市狭間町1682-6",
                "tel": "042-663-0466",
                "description": "指定袋:あり<br>40Lバラ売り:あり<br粗大ゴミ処理券:あり",
                "links": [],
                "lat": 35.638631,
                "lng": 139.2871037
            },
            {
                "name": "㈱大塚商店",
                "address": "東京都八王子市狭間町1846",
                "tel": "042-661-0252",
                "description": "指定袋:あり<br>40Lバラ売り:なし<br粗大ゴミ処理券:あり",
                "links": [],
                "lat": 35.6374541,
                "lng": 139.2856184
            },
            {
                "name": "㈲荒物加島屋",
                "address": "東京都八王子市八幡町11-6",
                "tel": "042-625-0144",
                "description": "指定袋:あり<br>40Lバラ売り:あり<br粗大ゴミ処理券:あり",
                "links": [],
                "lat": 35.6608202,
                "lng": 139.3256858
            },
            {
                "name": "㈲橋本要助商店",
                "address": "東京都八王子市八幡町12-1",
                "tel": "042-622-0021",
                "description": "指定袋:あり<br>40Lバラ売り:あり<br粗大ゴミ処理券:あり",
                "links": [],
                "lat": 35.6605719,
                "lng": 139.3273802
            },
            {
                "name": "㈲神田成美堂薬局",
                "address": "東京都八王子市八幡町12-4",
                "tel": "042-622-0520",
                "description": "指定袋:あり<br>40Lバラ売り:あり<br粗大ゴミ処理券:なし",
                "links": [],
                "lat": 35.6608274,
                "lng": 139.3268531
            },
            {
                "name": "京王ストア 高尾店 ",
                "address": "東京都八王子市初沢町1227-3",
                "tel": "042-662-8121",
                "description": "指定袋:あり<br>40Lバラ売り:あり<br粗大ゴミ処理券:あり",
                "links": [],
                "lat": 35.642357,
                "lng": 139.2836072
            },
            {
                "name": "ダイエー グルメシティ 高尾店",
                "address": "東京都八王子市初沢町1227-4",
                "tel": "042-665-8211",
                "description": "指定袋:あり<br>40Lバラ売り:あり<br粗大ゴミ処理券:あり",
                "links": [],
                "lat": 35.6423566,
                "lng": 139.2845565
            },
            {
                "name": "ミネ薬品 高尾店",
                "address": "東京都八王子市初沢町1231-16",
                "tel": "042-665-3525",
                "description": "指定袋:あり<br>40Lバラ売り:あり<br粗大ゴミ処理券:あり",
                "links": [],
                "lat": 35.641652,
                "lng": 139.2848955
            },
            {
                "name": "ファミリーマート 高尾駅南店",
                "address": "東京都八王子市初沢町1299-2",
                "tel": "042-669-2630",
                "description": "指定袋:あり<br>40Lバラ売り:なし<br粗大ゴミ処理券:あり",
                "links": [],
                "lat": 35.6406439,
                "lng": 139.2829074
            },
            {
                "name": "関口酒店",
                "address": "東京都八王子市東浅川町45",
                "tel": "042-661-0153",
                "description": "指定袋:あり<br>40Lバラ売り:なし<br粗大ゴミ処理券:なし",
                "links": [],
                "lat": 35.6480837,
                "lng": 139.2950858
            },
            {
                "name": "㈲小池商店（末広屋）",
                "address": "東京都八王子市東浅川町47",
                "tel": "042-661-1266",
                "description": "指定袋:あり<br>40Lバラ売り:あり<br粗大ゴミ処理券:なし",
                "links": [],
                "lat": 35.6482725,
                "lng": 139.2954222
            },
            {
                "name": "セブンイレブン 八王子東浅川店",
                "address": "東京都八王子市東浅川町283-1",
                "tel": "042-668-2013",
                "description": "指定袋:あり<br>40Lバラ売り:なし<br粗大ゴミ処理券:あり",
                "links": [],
                "lat": 35.6468789,
                "lng": 139.2901354
            },
            {
                "name": "ノムラ薬局 高尾店",
                "address": "東京都八王子市東浅川町336-13",
                "tel": "042-686-1330",
                "description": "指定袋:あり<br>40Lバラ売り:なし<br粗大ゴミ処理券:なし",
                "links": [],
                "lat": 35.6460993,
                "lng": 139.2881057
            },
            {
                "name": "ファミリーマート 秀栄東浅川町店",
                "address": "東京都八王子市東浅川町507-8",
                "tel": "042-668-7714",
                "description": "指定袋:あり<br>40Lバラ売り:あり<br粗大ゴミ処理券:あり",
                "links": [],
                "lat": 35.6456578,
                "lng": 139.2978572
            },
            {
                "name": "エコス 東浅川店",
                "address": "東京都八王子市東浅川町518-1",
                "tel": "042-669-0061",
                "description": "指定袋:あり<br>40Lバラ売り:なし<br粗大ゴミ処理券:あり",
                "links": [],
                "lat": 35.6447557,
                "lng": 139.2957929
            },
            {
                "name": "スーパーバリュー 八王子高尾店",
                "address": "東京都八王子市東浅川町546-20",
                "tel": "042-673-5215",
                "description": "指定袋:あり<br>40Lバラ売り:なし<br粗大ゴミ処理券:なし",
                "links": [],
                "lat": 35.6412279,
                "lng": 139.2878146
            },
            {
                "name": "サンドラッグ 高尾店",
                "address": "東京都八王子市東浅川町550-1",
                "tel": "042-669-0271",
                "description": "指定袋:あり<br>40Lバラ売り:なし<br粗大ゴミ処理券:あり",
                "links": [],
                "lat": 35.6431954,
                "lng": 139.2884832
            },
            {
                "name": "㈱三和 イーアス高尾店",
                "address": "東京都八王子市東浅川町550-1",
                "tel": "042-661-3050",
                "description": "指定袋:あり<br>40Lバラ売り:なし<br粗大ゴミ処理券:あり",
                "links": [],
                "lat": 35.6431954,
                "lng": 139.2884832
            },
            {
                "name": "セブンイレブン 八王子陵南店",
                "address": "東京都八王子市東浅川町556-1",
                "tel": "042-666-3371",
                "description": "指定袋:あり<br>40Lバラ売り:あり<br粗大ゴミ処理券:あり",
                "links": [],
                "lat": 35.6455934,
                "lng": 139.2956226
            },
            {
                "name": "ウエルシア 八王子東浅川店",
                "address": "東京都八王子市東浅川町557-4",
                "tel": "042-668-8038",
                "description": "指定袋:あり<br>40Lバラ売り:あり<br粗大ゴミ処理券:あり",
                "links": [],
                "lat": 35.6461686,
                "lng": 139.296609
            },
            {
                "name": "セブンイレブン 八王子高尾駅南口店",
                "address": "東京都八王子市東浅川町914-5",
                "tel": "042-661-5689",
                "description": "指定袋:あり<br>40Lバラ売り:なし<br粗大ゴミ処理券:あり",
                "links": [],
                "lat": 35.6417445,
                "lng": 139.2860411
            },
            {
                "name": "セブンイレブン 八王子東中野店",
                "address": "東京都八王子市東中野13-3",
                "tel": "042-678-0013",
                "description": "指定袋:あり<br>40Lバラ売り:あり<br粗大ゴミ処理券:あり",
                "links": [],
                "lat": 35.6367978,
                "lng": 139.4146672
            },
            {
                "name": "㈱加藤ガス設備",
                "address": "東京都八王子市東中野76-1",
                "tel": "042-676-8247",
                "description": "指定袋:あり<br>40Lバラ売り:あり<br粗大ゴミ処理券:あり",
                "links": [],
                "lat": 35.635721,
                "lng": 139.4117187
            },
            {
                "name": "ノムラ薬局 東中野店",
                "address": "東京都八王子市東中野79-2",
                "tel": "042-670-8218",
                "description": "指定袋:あり<br>40Lバラ売り:なし<br粗大ゴミ処理券:なし",
                "links": [],
                "lat": 35.635821,
                "lng": 139.4110836
            },
            {
                "name": "ファミリーマート 天野谷戸公園前店",
                "address": "東京都八王子市東中野242-1",
                "tel": "042-670-5126",
                "description": "指定袋:あり<br>40Lバラ売り:あり<br粗大ゴミ処理券:あり",
                "links": [],
                "lat": 35.6401207,
                "lng": 139.4120735
            },
            {
                "name": "ウエルシア 八王子東中野店",
                "address": "東京都八王子市東中野279-2",
                "tel": "042-670-4824",
                "description": "指定袋:あり<br>40Lバラ売り:あり<br粗大ゴミ処理券:あり",
                "links": [],
                "lat": 35.6425293,
                "lng": 139.4104438
            },
            {
                "name": "ファミリーマート 中央大学明星大学駅店",
                "address": "東京都八王子市東中野742",
                "tel": "042-670-3512",
                "description": "指定袋:あり<br>40Lバラ売り:なし<br粗大ゴミ処理券:なし",
                "links": [],
                "lat": 35.640789,
                "lng": 139.403728
            },
            {
                "name": "中央大学生活協同組合購買店",
                "address": "東京都八王子市東中野742-1",
                "tel": "042-674-3011",
                "description": "指定袋:あり<br>40Lバラ売り:なし<br粗大ゴミ処理券:あり",
                "links": [],
                "lat": 35.6422191,
                "lng": 139.4042927
            },
            {
                "name": "㈲細野商店",
                "address": "東京都八王子市日吉町13-5",
                "tel": "042-622-2024",
                "description": "指定袋:あり<br>40Lバラ売り:あり<br粗大ゴミ処理券:あり",
                "links": [],
                "lat": 35.6613861,
                "lng": 139.3131227
            },
            {
                "name": "福井隆生堂薬局",
                "address": "東京都八王子市平岡町8-6",
                "tel": "042-622-1943",
                "description": "指定袋:あり<br>40Lバラ売り:なし<br粗大ゴミ処理券:あり",
                "links": [],
                "lat": 35.6628128,
                "lng": 139.3235749
            },
            {
                "name": "青木商店",
                "address": "東京都八王子市平岡町18-4",
                "tel": "042-623-2865",
                "description": "指定袋:あり<br>40Lバラ売り:あり<br粗大ゴミ処理券:なし",
                "links": [],
                "lat": 35.66376959999999,
                "lng": 139.3268748
            },
            {
                "name": "富士市商店",
                "address": "東京都八王子市富士見町3-4",
                "tel": "042-642-8551",
                "description": "指定袋:あり<br>40Lバラ売り:あり<br粗大ゴミ処理券:あり",
                "links": [],
                "lat": 35.667449,
                "lng": 139.3510126
            },
            {
                "name": "富士見ファーマシー",
                "address": "東京都八王子市富士見町3-6",
                "tel": "042-644-7002",
                "description": "指定袋:あり<br>40Lバラ売り:あり<br粗大ゴミ処理券:あり",
                "links": [],
                "lat": 35.6676459,
                "lng": 139.3510458
            },
            {
                "name": "㈱つかさや商店",
                "address": "東京都八王子市富士見町5-10",
                "tel": "042-642-2792",
                "description": "指定袋:あり<br>40Lバラ売り:あり<br粗大ゴミ処理券:なし",
                "links": [],
                "lat": 35.6674056,
                "lng": 139.3507672
            },
            {
                "name": "サンドラッグ 京王堀之内店",
                "address": "東京都八王子市別所1-1-1",
                "tel": "042-675-1308",
                "description": "指定袋:あり<br>40Lバラ売り:なし<br粗大ゴミ処理券:あり",
                "links": [],
                "lat": 35.6258099,
                "lng": 139.3981563
            },
            {
                "name": "ファミリーマート 八王子別所店",
                "address": "東京都八王子市別所1-11-21",
                "tel": "042-670-1708",
                "description": "指定袋:あり<br>40Lバラ売り:なし<br粗大ゴミ処理券:あり",
                "links": [],
                "lat": 35.6214325,
                "lng": 139.3978275
            },
            {
                "name": "ファミリーマート 松木公園店",
                "address": "東京都八王子市別所1-69-6",
                "tel": "042-670-2173",
                "description": "指定袋:あり<br>40Lバラ売り:あり<br粗大ゴミ処理券:あり",
                "links": [],
                "lat": 35.6130659,
                "lng": 139.3900455
            },
            {
                "name": "㈱三和 堀之内店",
                "address": "東京都八王子市別所2-1",
                "tel": "042-674-6151",
                "description": "指定袋:あり<br>40Lバラ売り:なし<br粗大ゴミ処理券:あり",
                "links": [],
                "lat": 35.6248,
                "lng": 139.400704
            },
            {
                "name": "サンドラッグ 京王堀之内駅前店",
                "address": "東京都八王子市別所2-1",
                "tel": "042-670-8185",
                "description": "指定袋:あり<br>40Lバラ売り:なし<br粗大ゴミ処理券:あり",
                "links": [],
                "lat": 35.6248,
                "lng": 139.400704
            },
            {
                "name": "ベルク ぐりーんうぉーく店",
                "address": "東京都八王子市別所2-56",
                "tel": "042-679-7100",
                "description": "指定袋:あり<br>40Lバラ売り:なし<br粗大ゴミ処理券:あり",
                "links": [],
                "lat": 35.6115436,
                "lng": 139.3963126
            },
            {
                "name": "ホームセンターコーナン ぐりーんうぉーく多摩店",
                "address": "東京都八王子市別所2-56",
                "tel": "042-670-1570",
                "description": "指定袋:あり<br>40Lバラ売り:あり<br粗大ゴミ処理券:あり",
                "links": [],
                "lat": 35.6115436,
                "lng": 139.3963126
            },
            {
                "name": "㈱三和 フードワン 八王子堀之内店",
                "address": "東京都八王子市堀之内483-6",
                "tel": "042-678-3711",
                "description": "指定袋:あり<br>40Lバラ売り:なし<br粗大ゴミ処理券:なし",
                "links": [],
                "lat": 35.6304723,
                "lng": 139.3972318
            },
            {
                "name": "ウェルパーク 八王子堀之内店",
                "address": "東京都八王子市堀之内3040-1",
                "tel": "042-653-3601",
                "description": "指定袋:あり<br>40Lバラ売り:あり<br粗大ゴミ処理券:あり",
                "links": [],
                "lat": 35.6301135,
                "lng": 139.3968203
            },
            {
                "name": "セブンイレブン 八王子堀之内店",
                "address": "東京都八王子市堀之内2-17-8",
                "tel": "042-677-4009",
                "description": "指定袋:あり<br>40Lバラ売り:なし<br粗大ゴミ処理券:あり",
                "links": [],
                "lat": 35.6292085,
                "lng": 139.403091
            },
            {
                "name": "業務スーパー リカーキング 堀之内店",
                "address": "東京都八王子市堀之内3-4-20",
                "tel": "042-679-8271",
                "description": "指定袋:あり<br>40Lバラ売り:なし<br粗大ゴミ処理券:あり",
                "links": [],
                "lat": 35.6276795,
                "lng": 139.4023167
            },
            {
                "name": "ファミリーマート 八王子堀之内店",
                "address": "東京都八王子市堀之内3-6-2",
                "tel": "042-653-3439",
                "description": "指定袋:あり<br>40Lバラ売り:あり<br粗大ゴミ処理券:あり",
                "links": [],
                "lat": 35.6280254,
                "lng": 139.4042223
            },
            {
                "name": "京王ストアエクスプレス 堀之内店",
                "address": "東京都八王子市堀之内3-24-4",
                "tel": "042-678-6031",
                "description": "指定袋:あり<br>40Lバラ売り:なし<br粗大ゴミ処理券:あり",
                "links": [],
                "lat": 35.624368,
                "lng": 139.400268
            },
            {
                "name": "ファミリーマート 京王堀之内駅前店",
                "address": "東京都八王子市堀之内3-27",
                "tel": "042-670-3173",
                "description": "指定袋:あり<br>40Lバラ売り:あり<br粗大ゴミ処理券:あり",
                "links": [],
                "lat": 35.62478600000001,
                "lng": 139.4002764
            },
            {
                "name": "セブンイレブン 八王子堀之内３丁目店",
                "address": "東京都八王子市堀之内3-29-1",
                "tel": "042-677-5776",
                "description": "指定袋:あり<br>40Lバラ売り:あり<br粗大ゴミ処理券:あり",
                "links": [],
                "lat": 35.626083,
                "lng": 139.3990298
            },
            {
                "name": "ファミリーマート 京王堀之内駅東店",
                "address": "東京都八王子市堀之内3-32-4",
                "tel": "042-670-2284",
                "description": "指定袋:あり<br>40Lバラ売り:あり<br粗大ゴミ処理券:あり",
                "links": [],
                "lat": 35.6262761,
                "lng": 139.4020913
            },
            {
                "name": "小川商店",
                "address": "東京都八王子市本郷町5-2",
                "tel": "042-622-1215",
                "description": "指定袋:あり<br>40Lバラ売り:あり<br粗大ゴミ処理券:あり",
                "links": [],
                "lat": 35.6615083,
                "lng": 139.3258839
            },
            {
                "name": "㈲松﨑商店",
                "address": "東京都八王子市本町19-11",
                "tel": "042-622-2025",
                "description": "指定袋:あり<br>40Lバラ売り:なし<br粗大ゴミ処理券:あり",
                "links": [],
                "lat": 35.6620438,
                "lng": 139.330799
            },
            {
                "name": "オフィスワン",
                "address": "東京都八王子市本町33-2",
                "tel": "042-621-6060",
                "description": "指定袋:あり<br>40Lバラ売り:あり<br粗大ゴミ処理券:あり",
                "links": [],
                "lat": 35.6637022,
                "lng": 139.3325035
            },
            {
                "name": "セブンイレブン 八王子松木北店",
                "address": "東京都八王子市松木15-7",
                "tel": "042-676-1178",
                "description": "指定袋:あり<br>40Lバラ売り:なし<br粗大ゴミ処理券:あり",
                "links": [],
                "lat": 35.6263051,
                "lng": 139.3916429
            },
            {
                "name": "ローソン 八王子松木店",
                "address": "東京都八王子市松木32-1",
                "tel": "042-689-5562",
                "description": "指定袋:あり<br>40Lバラ売り:なし<br粗大ゴミ処理券:あり",
                "links": [],
                "lat": 35.625006,
                "lng": 139.3926224
            },
            {
                "name": "ドン・キホーテ 京王堀之内店",
                "address": "東京都八王子市松木34-11",
                "tel": "042-670-3411",
                "description": "指定袋:あり<br>40Lバラ売り:なし<br粗大ゴミ処理券:なし",
                "links": [],
                "lat": 35.6257096,
                "lng": 139.3972747
            },
            {
                "name": "㈲大沢屋商店",
                "address": "東京都八王子市松木34-27",
                "tel": "042-675-5111",
                "description": "指定袋:あり<br>40Lバラ売り:あり<br粗大ゴミ処理券:なし",
                "links": [],
                "lat": 35.6252789,
                "lng": 139.3960621
            },
            {
                "name": "セブンイレブン 八王子松木店",
                "address": "東京都八王子市松木62-5",
                "tel": "042-678-5052",
                "description": "指定袋:あり<br>40Lバラ売り:あり<br粗大ゴミ処理券:あり",
                "links": [],
                "lat": 35.622033,
                "lng": 139.3911872
            },
            {
                "name": "ファミリーマート みさき通り店",
                "address": "東京都八王子市三崎町3-6",
                "tel": "042-655-8205",
                "description": "指定袋:あり<br>40Lバラ売り:なし<br粗大ゴミ処理券:あり",
                "links": [],
                "lat": 35.6571264,
                "lng": 139.3366103
            },
            {
                "name": "肉のハナマサ 八王子店",
                "address": "東京都八王子市三崎町5-16",
                "tel": "042-626-8703",
                "description": "指定袋:あり<br>40Lバラ売り:なし<br粗大ゴミ処理券:なし",
                "links": [],
                "lat": 35.6574912,
                "lng": 139.3358425
            },
            {
                "name": "㈲伊登勢屋商店",
                "address": "東京都八王子市三崎町7-6",
                "tel": "042-622-0145",
                "description": "指定袋:あり<br>40Lバラ売り:あり<br粗大ゴミ処理券:あり",
                "links": [],
                "lat": 35.6569469,
                "lng": 139.3353972
            },
            {
                "name": "㈲内田ストアー",
                "address": "東京都八王子市みつい台2-2-9",
                "tel": "042-691-3681",
                "description": "指定袋:あり<br>40Lバラ売り:あり<br粗大ゴミ処理券:あり",
                "links": [],
                "lat": 35.6811393,
                "lng": 139.3272435
            },
            {
                "name": "下島商店",
                "address": "東京都八王子市緑町194",
                "tel": "042-626-4466",
                "description": "指定袋:あり<br>40Lバラ売り:あり<br粗大ゴミ処理券:あり",
                "links": [],
                "lat": 35.649508,
                "lng": 139.3306404
            },
            {
                "name": "酒店ふじや",
                "address": "東京都八王子市緑町410-5",
                "tel": "042-622-7293",
                "description": "指定袋:あり<br>40Lバラ売り:あり<br粗大ゴミ処理券:なし",
                "links": [],
                "lat": 35.6462524,
                "lng": 139.3210387
            },
            {
                "name": "ＮＰＯ法人なみき福祉会 工房みどりの風",
                "address": "東京都八王子市緑町935-15",
                "tel": "042-628-3068",
                "description": "指定袋:あり<br>40Lバラ売り:なし<br粗大ゴミ処理券:なし",
                "links": [],
                "lat": 35.6474601,
                "lng": 139.3359447
            },
            {
                "name": "越後屋酒店",
                "address": "東京都八王子市南浅川町3060-1",
                "tel": "042-663-4508",
                "description": "指定袋:あり<br>40Lバラ売り:なし<br粗大ゴミ処理券:あり",
                "links": [],
                "lat": 35.6177573,
                "lng": 139.2618326
            },
            {
                "name": "ローソン スリーエフ 南大沢店",
                "address": "東京都八王子市南大沢1-18-20",
                "tel": "042-676-5533",
                "description": "指定袋:あり<br>40Lバラ売り:あり<br粗大ゴミ処理券:あり",
                "links": [],
                "lat": 35.61800650000001,
                "lng": 139.3839925
            },
            {
                "name": "グランルパサカガミ 南大沢",
                "address": "東京都八王子市南大沢1-380-B301",
                "tel": "042-670-5211",
                "description": "指定袋:あり<br>40Lバラ売り:あり<br粗大ゴミ処理券:なし",
                "links": [],
                "lat": 35.6153742,
                "lng": 139.3789171
            },
            {
                "name": "Ｋ－Ｓｈｏｐ南大沢",
                "address": "東京都八王子市南大沢2-1-6",
                "tel": "042-670-2351",
                "description": "指定袋:あり<br>40Lバラ売り:なし<br粗大ゴミ処理券:なし",
                "links": [],
                "lat": 35.6138779,
                "lng": 139.3794251
            },
            {
                "name": "ファミリーマートパオレ南大沢店",
                "address": "東京都八王子市南大沢2-2",
                "tel": "042-670-1017",
                "description": "指定袋:あり<br>40Lバラ売り:あり<br粗大ゴミ処理券:あり",
                "links": [],
                "lat": 35.6132806,
                "lng": 139.3804878
            },
            {
                "name": "サンドラッグ 南大沢店",
                "address": "東京都八王子市南大沢2-25",
                "tel": "042-679-6701",
                "description": "指定袋:あり<br>40Lバラ売り:なし<br粗大ゴミ処理券:あり",
                "links": [],
                "lat": 35.613251,
                "lng": 139.3815776
            },
            {
                "name": "ローソン フォレストモール南大沢店",
                "address": "東京都八王子市南大沢2-25",
                "tel": "042-675-6567",
                "description": "指定袋:あり<br>40Lバラ売り:なし<br粗大ゴミ処理券:あり",
                "links": [],
                "lat": 35.613251,
                "lng": 139.3815776
            },
            {
                "name": "イトーヨーカドー 南大沢店",
                "address": "東京都八王子市南大沢2-28-1",
                "tel": "042-678-1811",
                "description": "指定袋:あり<br>40Lバラ売り:あり<br粗大ゴミ処理券:なし",
                "links": [],
                "lat": 35.6131664,
                "lng": 139.3794193
            },
            {
                "name": "セブンイレブン 南大沢駅前店",
                "address": "東京都八王子市南大沢2-29",
                "tel": "042-679-2552",
                "description": "指定袋:あり<br>40Lバラ売り:なし<br粗大ゴミ処理券:あり",
                "links": [],
                "lat": 35.61378300000001,
                "lng": 139.3808169
            },
            {
                "name": "セブンイレブン 八王子南大沢店",
                "address": "東京都八王子市南大沢2-211-16",
                "tel": "042-674-8105",
                "description": "指定袋:あり<br>40Lバラ売り:なし<br粗大ゴミ処理券:あり",
                "links": [],
                "lat": 35.6105168,
                "lng": 139.3858935
            },
            {
                "name": "ミニストップ  南大沢店",
                "address": "東京都八王子市南大沢2-226-1",
                "tel": "042-677-4701",
                "description": "指定袋:あり<br>40Lバラ売り:あり<br粗大ゴミ処理券:あり",
                "links": [],
                "lat": 35.6044324,
                "lng": 139.3858324
            },
            {
                "name": "㈲精美堂薬局",
                "address": "東京都八王子市南大沢3-9-5-104",
                "tel": "042-675-3557",
                "description": "指定袋:あり<br>40Lバラ売り:あり<br粗大ゴミ処理券:あり",
                "links": [],
                "lat": 35.6072912,
                "lng": 139.378867
            },
            {
                "name": "明日見ライフ南大沢",
                "address": "東京都八王子市南大沢3-16-1",
                "tel": "042-679-3030",
                "description": "指定袋:あり<br>40Lバラ売り:あり<br粗大ゴミ処理券:あり",
                "links": [],
                "lat": 35.6038078,
                "lng": 139.3814625
            },
            {
                "name": "スーパーマーケット三徳 南大沢店",
                "address": "東京都八王子市南大沢5-14",
                "tel": "042-676-3109",
                "description": "指定袋:あり<br>40Lバラ売り:あり<br粗大ゴミ処理券:あり",
                "links": [],
                "lat": 35.6124943,
                "lng": 139.3690911
            },
            {
                "name": "マツモトキヨシ 南大沢店",
                "address": "東京都八王子市南大沢5-14-1",
                "tel": "042-677-5620",
                "description": "指定袋:あり<br>40Lバラ売り:なし<br粗大ゴミ処理券:あり",
                "links": [],
                "lat": 35.6128028,
                "lng": 139.3694728
            },
            {
                "name": "ローソン 八王子南新町店",
                "address": "東京都八王子市南新町15",
                "tel": "042-621-0525",
                "description": "指定袋:あり<br>40Lバラ売り:なし<br粗大ゴミ処理券:あり",
                "links": [],
                "lat": 35.6584534,
                "lng": 139.3285691
            },
            {
                "name": "玉木屋酒店",
                "address": "東京都八王子市南新町20",
                "tel": "042-622-2471",
                "description": "指定袋:あり<br>40Lバラ売り:なし<br粗大ゴミ処理券:なし",
                "links": [],
                "lat": 35.6584616,
                "lng": 139.3299977
            },
            {
                "name": "お米のたくら",
                "address": "東京都八王子市南町7-2",
                "tel": "042-622-3577",
                "description": "指定袋:あり<br>40Lバラ売り:あり<br粗大ゴミ処理券:あり",
                "links": [],
                "lat": 35.6582119,
                "lng": 139.3324546
            },
            {
                "name": "マツモトキヨシ アクロスモール八王子みなみ野店",
                "address": "東京都八王子市みなみ野1-2-1",
                "tel": "042-637-8200",
                "description": "指定袋:あり<br>40Lバラ売り:なし<br粗大ゴミ処理券:あり",
                "links": [],
                "lat": 35.6306542,
                "lng": 139.3292332
            },
            {
                "name": "ＤＣＭホーマック 八王子みなみ野店",
                "address": "東京都八王子市みなみ野1-3-1",
                "tel": "042-632-6868",
                "description": "指定袋:あり<br>40Lバラ売り:あり<br粗大ゴミ処理券:あり",
                "links": [],
                "lat": 35.6316723,
                "lng": 139.3302826
            },
            {
                "name": "セブンイレブン 八王子みなみ野駅前店",
                "address": "東京都八王子市みなみ野1-3-2",
                "tel": "042-636-7109",
                "description": "指定袋:あり<br>40Lバラ売り:なし<br粗大ゴミ処理券:あり",
                "links": [],
                "lat": 35.6317308,
                "lng": 139.3299467
            },
            {
                "name": "ファミリーマート 八王子みなみ野店",
                "address": "東京都八王子市みなみ野1-6-8",
                "tel": "042-632-7577",
                "description": "指定袋:あり<br>40Lバラ売り:なし<br粗大ゴミ処理券:なし",
                "links": [],
                "lat": 35.6329488,
                "lng": 139.3290112
            },
            {
                "name": "サンドラッグ 八王子みなみ野店",
                "address": "東京都八王子市みなみ野1-8-1",
                "tel": "042-632-8021",
                "description": "指定袋:あり<br>40Lバラ売り:なし<br粗大ゴミ処理券:あり",
                "links": [],
                "lat": 35.6309801,
                "lng": 139.3278539
            },
            {
                "name": "㈱三和 八王子みなみ野店",
                "address": "東京都八王子市みなみ野1-8-1",
                "tel": "042-635-3811",
                "description": "指定袋:あり<br>40Lバラ売り:なし<br粗大ゴミ処理券:あり",
                "links": [],
                "lat": 35.6309801,
                "lng": 139.3278539
            },
            {
                "name": "ビッグ・エー 八王子みなみ野店",
                "address": "東京都八王子市みなみ野3-27-17",
                "tel": "042-637-0555",
                "description": "指定袋:あり<br>40Lバラ売り:なし<br粗大ゴミ処理券:あり",
                "links": [],
                "lat": 35.6303646,
                "lng": 139.3238355
            },
            {
                "name": "ウエルシア薬局 八王子みなみ野店",
                "address": "東京都八王子市みなみ野5-15-5",
                "tel": "042-632-0680",
                "description": "指定袋:あり<br>40Lバラ売り:あり<br粗大ゴミ処理券:あり",
                "links": [],
                "lat": 35.6291647,
                "lng": 139.3208074
            },
            {
                "name": "セブンイレブン 八王子みなみ野５丁目店",
                "address": "東京都八王子市みなみ野5-15-7",
                "tel": "042-636-4420",
                "description": "指定袋:あり<br>40Lバラ売り:なし<br粗大ゴミ処理券:あり",
                "links": [],
                "lat": 35.628933,
                "lng": 139.3205257
            },
            {
                "name": "セブンイレブン 八王子宮下町店",
                "address": "東京都八王子市宮下町579-2",
                "tel": "042-691-7778",
                "description": "指定袋:あり<br>40Lバラ売り:なし<br粗大ゴミ処理券:あり",
                "links": [],
                "lat": 35.7057911,
                "lng": 139.3050763
            },
            {
                "name": "㈱リースキン西東京",
                "address": "東京都八王子市美山町2161-27",
                "tel": "042-652-0292",
                "description": "指定袋:あり<br>40Lバラ売り:あり<br粗大ゴミ処理券:あり",
                "links": [],
                "lat": 35.6963862,
                "lng": 139.2409971
            },
            {
                "name": "ミニストップ 八王子明神町店",
                "address": "東京都八王子市明神町2-1-13",
                "tel": "042-646-5443",
                "description": "指定袋:あり<br>40Lバラ売り:あり<br粗大ゴミ処理券:あり",
                "links": [],
                "lat": 35.6557914,
                "lng": 139.3495307
            },
            {
                "name": "ファミリーマート 八王子明神町店",
                "address": "東京都八王子市明神町2-16-9",
                "tel": "042-656-0986",
                "description": "指定袋:あり<br>40Lバラ売り:あり<br粗大ゴミ処理券:あり",
                "links": [],
                "lat": 35.6579131,
                "lng": 139.3471721
            },
            {
                "name": "㈲小山米店",
                "address": "東京都八王子市明神町2-21-2",
                "tel": "042-642-1879",
                "description": "指定袋:あり<br>40Lバラ売り:あり<br粗大ゴミ処理券:あり",
                "links": [],
                "lat": 35.6585449,
                "lng": 139.3451075
            },
            {
                "name": "セブンイレブン 京王八王子駅前店",
                "address": "東京都八王子市明神町2-26-9",
                "tel": "042-642-4931",
                "description": "指定袋:あり<br>40Lバラ売り:あり<br粗大ゴミ処理券:あり",
                "links": [],
                "lat": 35.65827640000001,
                "lng": 139.3438801
            },
            {
                "name": "ファミリーマート 京王八王子店",
                "address": "東京都八王子市明神町2-26-10",
                "tel": "042-642-8088",
                "description": "指定袋:あり<br>40Lバラ売り:あり<br粗大ゴミ処理券:あり",
                "links": [],
                "lat": 35.658479,
                "lng": 139.3440731
            },
            {
                "name": "セブンイレブン 八王子明神町3丁目店",
                "address": "東京都八王子市明神町3-3-13",
                "tel": "042-656-5018",
                "description": "指定袋:あり<br>40Lバラ売り:あり<br粗大ゴミ処理券:あり",
                "links": [],
                "lat": 35.6557391,
                "lng": 139.3448821
            },
            {
                "name": "グルメシティ 京王八王子店",
                "address": "東京都八王子市明神町3-26-10",
                "tel": "042-646-4078",
                "description": "指定袋:あり<br>40Lバラ売り:なし<br粗大ゴミ処理券:なし",
                "links": [],
                "lat": 35.6573715,
                "lng": 139.3437499
            },
            {
                "name": "京王アートマン 京王八王子店",
                "address": "東京都八王子市明神町3-27-1",
                "tel": "042-656-7292",
                "description": "指定袋:あり<br>40Lバラ売り:あり<br粗大ゴミ処理券:あり",
                "links": [],
                "lat": 35.6578323,
                "lng": 139.3429879
            },
            {
                "name": "ノムラ薬局 八王子店",
                "address": "東京都八王子市明神町4-1-2",
                "tel": "042-646-4446",
                "description": "指定袋:あり<br>40Lバラ売り:なし<br粗大ゴミ処理券:なし",
                "links": [],
                "lat": 35.65903309999999,
                "lng": 139.3441821
            },
            {
                "name": "ファミリーマート 南多摩高校前店",
                "address": "東京都八王子市明神町4-2-11",
                "tel": "042-631-4620",
                "description": "指定袋:あり<br>40Lバラ売り:あり<br粗大ゴミ処理券:あり",
                "links": [],
                "lat": 35.6593809,
                "lng": 139.3428042
            },
            {
                "name": "ローソン 京王八王子駅前店",
                "address": "東京都八王子市明神町4-6-13",
                "tel": "042-646-3246",
                "description": "指定袋:あり<br>40Lバラ売り:なし<br粗大ゴミ処理券:あり",
                "links": [],
                "lat": 35.6583298,
                "lng": 139.3431706
            },
            {
                "name": "ファミリーマート 京王八王子駅前店",
                "address": "東京都八王子市明神町4-7-14 八王子ONビル",
                "tel": "042-631-3318",
                "description": "指定袋:あり<br>40Lバラ売り:なし<br粗大ゴミ処理券:あり",
                "links": [],
                "lat": 35.6583529,
                "lng": 139.3421674
            },
            {
                "name": "かきぬま酒店",
                "address": "東京都八王子市めじろ台1-9-1",
                "tel": "042-661-3085",
                "description": "指定袋:あり<br>40Lバラ売り:なし<br粗大ゴミ処理券:あり",
                "links": [],
                "lat": 35.6441158,
                "lng": 139.30708
            },
            {
                "name": "京王ストア めじろ台店",
                "address": "東京都八王子市めじろ台1-9-2",
                "tel": "042-661-5910",
                "description": "指定袋:あり<br>40Lバラ売り:あり<br粗大ゴミ処理券:あり",
                "links": [],
                "lat": 35.6442839,
                "lng": 139.3077455
            },
            {
                "name": "LTF京王めじろ台駅前店",
                "address": "東京都八王子市めじろ台2-1",
                "tel": "042-668-8431",
                "description": "指定袋:あり<br>40Lバラ売り:あり<br粗大ゴミ処理券:あり",
                "links": [],
                "lat": 35.6431669,
                "lng": 139.3079466
            },
            {
                "name": "セブンイレブン 八王子めじろ台駅南店",
                "address": "東京都八王子市めじろ台2-33-1",
                "tel": "042-662-2063",
                "description": "指定袋:あり<br>40Lバラ売り:あり<br粗大ゴミ処理券:あり",
                "links": [],
                "lat": 35.640937,
                "lng": 139.308571
            },
            {
                "name": "ファミリーマート 八王子めじろ台二丁目店",
                "address": "東京都八王子市めじろ台2-65-12",
                "tel": "042-668-7080",
                "description": "指定袋:あり<br>40Lバラ売り:あり<br粗大ゴミ処理券:あり",
                "links": [],
                "lat": 35.6386228,
                "lng": 139.3096251
            },
            {
                "name": "サンドラッグ めじろ台店",
                "address": "東京都八王子市めじろ台3-1-3",
                "tel": "042-668-0361",
                "description": "指定袋:あり<br>40Lバラ売り:なし<br粗大ゴミ処理券:あり",
                "links": [],
                "lat": 35.6424104,
                "lng": 139.3072044
            },
            {
                "name": "ファミリーマート めじろ台駅前店",
                "address": "東京都八王子市めじろ台3-1-9",
                "tel": "042-669-1861",
                "description": "指定袋:あり<br>40Lバラ売り:あり(不燃のみ)<br粗大ゴミ処理券:あり",
                "links": [],
                "lat": 35.6428006,
                "lng": 139.3069742
            },
            {
                "name": "ドラッグセイムス 元八王子店",
                "address": "東京都八王子市元八王子町1-436-1",
                "tel": "042-620-0870",
                "description": "指定袋:あり<br>40Lバラ売り:なし<br粗大ゴミ処理券:なし",
                "links": [],
                "lat": 35.6659408,
                "lng": 139.2878664
            },
            {
                "name": "セブンイレブン 元八王子店",
                "address": "東京都八王子市元八王子町1-449",
                "tel": "042-622-2537",
                "description": "指定袋:あり<br>40Lバラ売り:あり<br粗大ゴミ処理券:あり",
                "links": [],
                "lat": 35.6659059,
                "lng": 139.2884728
            },
            {
                "name": "ローソンストア１００ 元八王子町店",
                "address": "東京都八王子市元八王子町1-494",
                "tel": "042-620-7199",
                "description": "指定袋:あり<br>40Lバラ売り:あり<br粗大ゴミ処理券:なし",
                "links": [],
                "lat": 35.6664355,
                "lng": 139.2896711
            },
            {
                "name": "ミニストップ 元八王子町２丁目店",
                "address": "東京都八王子市元八王子町2-1151-4",
                "tel": "042-666-6310",
                "description": "指定袋:あり<br>40Lバラ売り:なし<br粗大ゴミ処理券:なし",
                "links": [],
                "lat": 35.658394,
                "lng": 139.2822623
            },
            {
                "name": "TAIRAYA 元八王子店",
                "address": "東京都八王子市元八王子町3-2211",
                "tel": "042-666-8238",
                "description": "指定袋:あり<br>40Lバラ売り:なし<br粗大ゴミ処理券:あり",
                "links": [],
                "lat": 35.6543739,
                "lng": 139.2769629
            },
            {
                "name": "高尾台ストアー",
                "address": "東京都八王子市元八王子町3-2750-401",
                "tel": "042-665-9975",
                "description": "指定袋:あり<br>40Lバラ売り:あり<br粗大ゴミ処理券:あり",
                "links": [],
                "lat": 35.6525113,
                "lng": 139.2706584
            },
            {
                "name": "小林商店",
                "address": "東京都八王子市元八王子町3-3046",
                "tel": "042-661-2136",
                "description": "指定袋:あり<br>40Lバラ売り:なし<br粗大ゴミ処理券:なし",
                "links": [],
                "lat": 35.6554084,
                "lng": 139.2746975
            },
            {
                "name": "吉澤酒店",
                "address": "東京都八王子市元本郷町1-11-1",
                "tel": "042-622-2440",
                "description": "指定袋:あり<br>40Lバラ売り:あり<br粗大ゴミ処理券:あり",
                "links": [],
                "lat": 35.6628961,
                "lng": 139.3206919
            },
            {
                "name": "セブンイレブン 八王子元本郷町店",
                "address": "東京都八王子市元本郷町1-23-1",
                "tel": "042-622-5150",
                "description": "指定袋:あり<br>40Lバラ売り:あり<br粗大ゴミ処理券:あり",
                "links": [],
                "lat": 35.6647415,
                "lng": 139.3210836
            },
            {
                "name": "㈲井出商工",
                "address": "東京都八王子市元本郷町2-8-5",
                "tel": "042-623-6525",
                "description": "指定袋:あり<br>40Lバラ売り:あり<br粗大ゴミ処理券:なし",
                "links": [],
                "lat": 35.6640826,
                "lng": 139.3185184
            },
            {
                "name": "ローソン八王子元本郷三丁目店",
                "address": "東京都八王子市元本郷町3-6-15",
                "tel": "042-686-2268",
                "description": "指定袋:あり<br>40Lバラ売り:なし<br粗大ゴミ処理券:なし",
                "links": [],
                "lat": 35.6627622,
                "lng": 139.3147474
            },
            {
                "name": "クリーニングホワイト",
                "address": "東京都八王子市元本郷町3-7-14",
                "tel": "042-622-7548",
                "description": "指定袋:あり<br>40Lバラ売り:なし<br粗大ゴミ処理券:なし",
                "links": [],
                "lat": 35.6632096,
                "lng": 139.3147246
            },
            {
                "name": "㈱山六",
                "address": "東京都八王子市元本郷町3-11-17",
                "tel": "042-624-1241",
                "description": "指定袋:あり<br>40Lバラ売り:なし<br粗大ゴミ処理券:なし",
                "links": [],
                "lat": 35.6638893,
                "lng": 139.3155514
            },
            {
                "name": "セブンイレブン 八王子元本郷3丁目店",
                "address": "東京都八王子市元本郷町3-12-10",
                "tel": "042-621-3663",
                "description": "指定袋:あり<br>40Lバラ売り:あり<br粗大ゴミ処理券:あり",
                "links": [],
                "lat": 35.6644575,
                "lng": 139.3147871
            },
            {
                "name": "木馬工房 木のっぴ",
                "address": "東京都八王子市元本郷町3-17-13",
                "tel": "042-624-3340",
                "description": "指定袋:あり<br>40Lバラ売り:あり<br粗大ゴミ処理券:なし",
                "links": [],
                "lat": 35.6656706,
                "lng": 139.3151885
            },
            {
                "name": "八王子市職員等事業本部",
                "address": "東京都八王子市元本郷町3-24-1",
                "tel": "042-620-7337",
                "description": "指定袋:あり<br>40Lバラ売り:あり<br粗大ゴミ処理券:あり",
                "links": [],
                "lat": 35.6664522,
                "lng": 139.31582
            },
            {
                "name": "シモダディスカウントセンター八王子店 ",
                "address": "東京都八王子市元本郷町4-4-19",
                "tel": "042-623-8349",
                "description": "指定袋:あり<br>40Lバラ売り:なし<br粗大ゴミ処理券:あり",
                "links": [],
                "lat": 35.6642077,
                "lng": 139.3122139
            },
            {
                "name": "㈲和田ギフト",
                "address": "東京都八王子市元本郷町4-10-1",
                "tel": "042-622-0111",
                "description": "指定袋:あり<br>40Lバラ売り:あり<br粗大ゴミ処理券:なし",
                "links": [],
                "lat": 35.6637815,
                "lng": 139.3143657
            },
            {
                "name": "クリエイトＳ・Ｄ 八王子元本郷店",
                "address": "東京都八王子市元本郷町4-17-16",
                "tel": "042-622-3192",
                "description": "指定袋:あり<br>40Lバラ売り:あり<br粗大ゴミ処理券:あり",
                "links": [],
                "lat": 35.6655937,
                "lng": 139.314037
            },
            {
                "name": "ローソン 八王子元横山町一丁目店",
                "address": "東京都八王子市元横山町1-7-8",
                "tel": "042-646-4538",
                "description": "指定袋:あり<br>40Lバラ売り:なし<br粗大ゴミ処理券:あり",
                "links": [],
                "lat": 35.66255719999999,
                "lng": 139.3428203
            },
            {
                "name": "セブンイレブン 八王子桑並木通り店",
                "address": "東京都八王子市元横山町2-1-9",
                "tel": "042-646-0727",
                "description": "指定袋:あり<br>40Lバラ売り:あり<br粗大ゴミ処理券:あり",
                "links": [],
                "lat": 35.6612266,
                "lng": 139.339302
            },
            {
                "name": "かどや書店",
                "address": "東京都八王子市元横山町2-12-1",
                "tel": "042-645-6833",
                "description": "指定袋:あり<br>40Lバラ売り:あり<br粗大ゴミ処理券:あり",
                "links": [],
                "lat": 35.6619034,
                "lng": 139.336864
            },
            {
                "name": "ファミリーマート 八王子いちょうホール通り店",
                "address": "東京都八王子市元横山町2-15-21",
                "tel": "042-620-0310",
                "description": "指定袋:あり<br>40Lバラ売り:あり<br粗大ゴミ処理券:あり",
                "links": [],
                "lat": 35.6618146,
                "lng": 139.3357281
            },
            {
                "name": "セブンイレブン 八王子元横山２丁目店",
                "address": "東京都八王子市元横山町2-20-10",
                "tel": "042-625-5886",
                "description": "指定袋:あり<br>40Lバラ売り:なし<br粗大ゴミ処理券:あり",
                "links": [],
                "lat": 35.663341,
                "lng": 139.3341702
            },
            {
                "name": "㈲内田商店",
                "address": "東京都八王子市元横山町3-3-14",
                "tel": "042-642-1815",
                "description": "指定袋:あり<br>40Lバラ売り:あり<br粗大ゴミ処理券:あり",
                "links": [],
                "lat": 35.6645084,
                "lng": 139.3369433
            },
            {
                "name": "さかえや酒店",
                "address": "東京都八王子市元横山町3-7-28",
                "tel": "042-622-3543",
                "description": "指定袋:あり<br>40Lバラ売り:あり<br粗大ゴミ処理券:あり",
                "links": [],
                "lat": 35.6644777,
                "lng": 139.3363189
            },
            {
                "name": "㈲八木町花月園本店",
                "address": "東京都八王子市八木町3-20",
                "tel": "042-622-3203",
                "description": "指定袋:あり<br>40Lバラ売り:あり<br粗大ゴミ処理券:あり",
                "links": [],
                "lat": 35.6606889,
                "lng": 139.3210069
            },
            {
                "name": "ディスカウントショップボーダー",
                "address": "東京都八王子市八木町5-8",
                "tel": "042-627-7173",
                "description": "指定袋:あり<br>40Lバラ売り:なし<br粗大ゴミ処理券:あり",
                "links": [],
                "lat": 35.6610325,
                "lng": 139.3215046
            },
            {
                "name": "ローソンストア１００ 八王子八木町店",
                "address": "東京都八王子市八木町6-11",
                "tel": "042-655-5399",
                "description": "指定袋:あり<br>40Lバラ売り:あり<br粗大ゴミ処理券:あり",
                "links": [],
                "lat": 35.6610562,
                "lng": 139.3231524
            },
            {
                "name": "セブンイレブン 八王子谷野町店",
                "address": "東京都八王子市谷野町210-9",
                "tel": "042-692-3650",
                "description": "指定袋:あり<br>40Lバラ売り:なし<br粗大ゴミ処理券:あり",
                "links": [],
                "lat": 35.6862565,
                "lng": 139.3223814
            },
            {
                "name": "セブンイレブン 八王子八日町店",
                "address": "東京都八王子市八日町1-16",
                "tel": "042-623-2071",
                "description": "指定袋:あり<br>40Lバラ売り:なし<br粗大ゴミ処理券:なし",
                "links": [],
                "lat": 35.6596779,
                "lng": 139.3333381
            },
            {
                "name": "㈱加増屋商店",
                "address": "東京都八王子市八日町5-11",
                "tel": "042-622-1223",
                "description": "指定袋:あり<br>40Lバラ売り:あり(不燃のみ)<br粗大ゴミ処理券:あり",
                "links": [],
                "lat": 35.6600834,
                "lng": 139.3289345
            },
            {
                "name": "セブンイレブン 八王子八日町5丁目店",
                "address": "東京都八王子市八日町5-15",
                "tel": "042-624-7766",
                "description": "指定袋:あり<br>40Lバラ売り:あり<br粗大ゴミ処理券:あり",
                "links": [],
                "lat": 35.660056,
                "lng": 139.3296993
            },
            {
                "name": "スギ薬局 八日町店",
                "address": "東京都八王子市八日町8-1 ビュータワー1階",
                "tel": "042-686-3981",
                "description": "指定袋:あり<br>40Lバラ売り:なし<br粗大ゴミ処理券:なし",
                "links": [],
                "lat": 35.66052860000001,
                "lng": 139.3306169
            },
            {
                "name": "ローソン 八王子八日町店",
                "address": "東京都八王子市八日町10-1",
                "tel": "042-686-2368",
                "description": "指定袋:あり<br>40Lバラ売り:なし<br粗大ゴミ処理券:あり",
                "links": [],
                "lat": 35.6601247,
                "lng": 139.3334997
            },
            {
                "name": "ビッグ・エー 八王子横川町店",
                "address": "東京都八王子市横川町105-42",
                "tel": "042-626-6111",
                "description": "指定袋:あり<br>40Lバラ売り:あり<br粗大ゴミ処理券:あり",
                "links": [],
                "lat": 35.66585,
                "lng": 139.3100682
            },
            {
                "name": "セブンイレブン 八王子横川東店",
                "address": "東京都八王子市横川町475-1",
                "tel": "042-623-7255",
                "description": "指定袋:あり<br>40Lバラ売り:あり<br粗大ゴミ処理券:あり",
                "links": [],
                "lat": 35.6641167,
                "lng": 139.305986
            },
            {
                "name": "ファミリーマート 八王子陣馬街道店",
                "address": "東京都八王子市横川町534-1",
                "tel": "042-620-4205",
                "description": "指定袋:あり<br>40Lバラ売り:あり<br粗大ゴミ処理券:あり",
                "links": [],
                "lat": 35.6652493,
                "lng": 139.3044911
            },
            {
                "name": "スーパーアルプス 横川店",
                "address": "東京都八王子市横川町540-1",
                "tel": "042-621-3071",
                "description": "指定袋:あり<br>40Lバラ売り:あり<br粗大ゴミ処理券:あり",
                "links": [],
                "lat": 35.6659427,
                "lng": 139.3039253
            },
            {
                "name": "小林商店",
                "address": "東京都八王子市横川町702-6",
                "tel": "042-623-0067",
                "description": "指定袋:あり<br>40Lバラ売り:なし<br粗大ゴミ処理券:あり",
                "links": [],
                "lat": 35.6647534,
                "lng": 139.3008893
            },
            {
                "name": "ファミリーマート 八王子横川町店",
                "address": "東京都八王子市横川町1120-1",
                "tel": "042-655-7239",
                "description": "指定袋:あり<br>40Lバラ売り:なし<br粗大ゴミ処理券:あり",
                "links": [],
                "lat": 35.6677509,
                "lng": 139.2916963
            },
            {
                "name": "イオンフードスタイル八王子店",
                "address": "東京都八王子市横山町4-8",
                "tel": "042-642-8025",
                "description": "指定袋:あり<br>40Lバラ売り:あり<br粗大ゴミ処理券:あり",
                "links": [],
                "lat": 35.6593998,
                "lng": 139.3387471
            },
            {
                "name": "大島屋",
                "address": "東京都八王子市横山町5-9",
                "tel": "042-642-0556",
                "description": "指定袋:あり<br>40Lバラ売り:なし<br粗大ゴミ処理券:なし",
                "links": [],
                "lat": 35.6596392,
                "lng": 139.337974
            },
            {
                "name": "ファミリーマート 八王子パーク壱番街通り店",
                "address": "東京都八王子市横山町7-5",
                "tel": "042-656-8040",
                "description": "指定袋:あり<br>40Lバラ売り:あり<br粗大ゴミ処理券:あり",
                "links": [],
                "lat": 35.6590521,
                "lng": 139.3372122
            },
            {
                "name": "㈱横溝商店",
                "address": "東京都八王子市横山町8-3",
                "tel": "042-642-6221",
                "description": "指定袋:あり<br>40Lバラ売り:なし<br粗大ゴミ処理券:なし",
                "links": [],
                "lat": 35.6592179,
                "lng": 139.3364775
            },
            {
                "name": "ローソンストア１００ 八王子横山町店",
                "address": "東京都八王子市横山町11-2",
                "tel": "042-631-9533",
                "description": "指定袋:あり<br>40Lバラ売り:あり<br粗大ゴミ処理券:なし",
                "links": [],
                "lat": 35.6591925,
                "lng": 139.3352253
            },
            {
                "name": "あらもの米屋 守谷富蔵商店",
                "address": "東京都八王子市横山町15-1",
                "tel": "042-624-2277",
                "description": "指定袋:あり<br>40Lバラ売り:なし<br粗大ゴミ処理券:あり",
                "links": [],
                "lat": 35.6600614,
                "lng": 139.3343583
            },
            {
                "name": "㈱スミレ薬局",
                "address": "東京都八王子市横山町21-8",
                "tel": "042-642-1776",
                "description": "指定袋:あり<br>40Lバラ売り:あり<br粗大ゴミ処理券:あり",
                "links": [],
                "lat": 35.6603651,
                "lng": 139.3372566
            },
            {
                "name": "セブンイレブン 八王子横山町店",
                "address": "東京都八王子市横山町22-8",
                "tel": "042-645-0717",
                "description": "指定袋:あり<br>40Lバラ売り:あり<br粗大ゴミ処理券:あり",
                "links": [],
                "lat": 35.6600266,
                "lng": 139.3371714
            },
            {
                "name": "ローソン八王子横山町店",
                "address": "東京都八王子市横山町25-6",
                "tel": "042-649-2942",
                "description": "指定袋:あり<br>40Lバラ売り:なし<br粗大ゴミ処理券:あり",
                "links": [],
                "lat": 35.6601558,
                "lng": 139.3397467
            },
            {
                "name": "セブンイレブン 八王子四谷町店",
                "address": "東京都八王子市四谷町506-1",
                "tel": "042-622-0713",
                "description": "指定袋:あり<br>40Lバラ売り:あり<br粗大ゴミ処理券:あり",
                "links": [],
                "lat": 35.6799565,
                "lng": 139.2960481
            },
            {
                "name": "ローソン 八王子四谷町店",
                "address": "東京都八王子市四谷町674-3",
                "tel": "042-624-7088",
                "description": "指定袋:あり<br>40Lバラ売り:なし<br粗大ゴミ処理券:あり",
                "links": [],
                "lat": 35.6778204,
                "lng": 139.2980485
            },
            {
                "name": "クリエイトＳ・Ｄ 八王子四谷店",
                "address": "東京都八王子市四谷町680-1",
                "tel": "042-620-2621",
                "description": "指定袋:あり<br>40Lバラ売り:あり<br粗大ゴミ処理券:あり",
                "links": [],
                "lat": 35.6770669,
                "lng": 139.2985221
            },
            {
                "name": "クリエイトＳ・Ｄ 八王子万町店",
                "address": "東京都八王子市万町20-1",
                "tel": "042-655-7430",
                "description": "指定袋:あり<br>40Lバラ売り:あり<br粗大ゴミ処理券:あり",
                "links": [],
                "lat": 35.6541538,
                "lng": 139.3341389
            },
            {
                "name": "セブンイレブン 八王子万町店",
                "address": "東京都八王子市万町20-2",
                "tel": "042-626-3008",
                "description": "指定袋:あり<br>40Lバラ売り:あり<br粗大ゴミ処理券:あり",
                "links": [],
                "lat": 35.654304,
                "lng": 139.3342721
            },
            {
                "name": "リカーショップつかもと",
                "address": "東京都八王子市万町64-10",
                "tel": "042-622-7923",
                "description": "指定袋:あり<br>40Lバラ売り:あり<br粗大ゴミ処理券:あり",
                "links": [],
                "lat": 35.65076639999999,
                "lng": 139.3337428
            },
            {
                "name": "ファミリーマート 八王子万町店",
                "address": "東京都八王子市万町98-5",
                "tel": "042-620-5842",
                "description": "指定袋:あり<br>40Lバラ売り:なし<br粗大ゴミ処理券:あり",
                "links": [],
                "lat": 35.6522593,
                "lng": 139.3331149
            },
            {
                "name": "マツモトキヨシ 八王子万町店",
                "address": "東京都八王子市万町124-1",
                "tel": "042-626-5108",
                "description": "指定袋:あり<br>40Lバラ売り:なし<br粗大ゴミ処理券:なし",
                "links": [],
                "lat": 35.6545811,
                "lng": 139.3312665
            },
            {
                "name": "池田金物店",
                "address": "東京都八王子市万町171-4",
                "tel": "042-622-0436",
                "description": "指定袋:あり<br>40Lバラ売り:あり<br粗大ゴミ処理券:なし",
                "links": [],
                "lat": 35.6518109,
                "lng": 139.3332504
            }
        ]
    }
}